,codigo_ocorrencia,codigo_ocorrencia1,codigo_ocorrencia2,codigo_ocorrencia3,codigo_ocorrencia4,ocorrencia_classificacao,ocorrencia_latitude,ocorrencia_longitude,ocorrencia_cidade,ocorrencia_uf,ocorrencia_pais,ocorrencia_aerodromo,ocorrencia_dia,ocorrencia_hora,investigacao_aeronave_liberada,investigacao_status,divulgacao_relatorio_numero,divulgacao_relatorio_publicado,divulgacao_dia_publicacao,total_recomendacoes,total_aeronaves_envolvidas,ocorrencia_saida_pista,ocorrencia_dia_raw,ocorrencia_mes,ocorrencia_ano,ocorrencia_hora_raw,ano_mes
0,81756,81756,81756,81756,81756,INCIDENTE GRAVE,-4.324444444,-56.08805556,ITAITUBA,PA,BRASIL,SNEJ,5,17,SIM,FINALIZADA,***,NÃO,,0,1,SIM,4/5/2023 0:00,4,2023,1/1/1900 17:20,2023-04
1,81747,81747,81747,81747,81747,INCIDENTE,-12.90861111,-38.3225,SALVADOR,BA,BRASIL,SBSV,24,22,SIM,FINALIZADA,***,NÃO,,0,1,NÃO,6/24/2023 0:00,6,2023,1/1/1900 22:00,2023-06
2,81746,81746,81746,81746,81746,INCIDENTE,-6.241111111,-50.80055556,OURILÂNDIA DO NORTE,PA,BRASIL,****,27,16,SIM,FINALIZADA,***,NÃO,,0,1,NÃO,6/27/2023 0:00,6,2023,1/1/1900 16:12,2023-06
3,81745,81745,81745,81745,81745,INCIDENTE,-5.908333333,-35.24916667,NATAL,RN,BRASIL,SBNT,30,13,SIM,FINALIZADA,***,NÃO,,0,1,NÃO,6/30/2023 0:00,6,2023,1/1/1900 13:15,2023-06
4,81743,81743,81743,81743,81743,INCIDENTE,-29.99472222,-51.17111111,PORTO ALEGRE,RS,BRASIL,SBPA,25,23,SIM,FINALIZADA,***,NÃO,,0,1,NÃO,6/25/2023 0:00,6,2023,1/1/1900 23:45,2023-06
5,81742,81742,81742,81742,81742,INCIDENTE,-22.91,-43.1625,RIO DE JANEIRO,RJ,BRASIL,SBRJ,23,20,SIM,FINALIZADA,***,NÃO,,0,1,NÃO,6/23/2023 0:00,6,2023,1/1/1900 20:29,2023-06
6,81740,81740,81740,81740,81740,INCIDENTE,-19.62444444,-43.97194444,CONFINS,MG,BRASIL,SBCF,24,15,SIM,FINALIZADA,***,NÃO,,0,1,NÃO,6/24/2023 0:00,6,2023,1/1/1900 15:02,2023-06
7,81737,81737,81737,81737,81737,ACIDENTE,-18.71277778,-51.75722222,ITARUMÃ,GO,BRASIL,***,29,14,SIM,ATIVA,A-107/CENIPA/2023,NÃO,,0,1,SIM,6/29/2023 0:00,6,2023,1/1/1900 14:30,2023-06
8,81736,81736,81736,81736,81736,INCIDENTE,-15.87111111,-47.91861111,BRASÍLIA,DF,BRASIL,SBBR,3,3,SIM,FINALIZADA,***,NÃO,,0,1,NÃO,6/3/2023 0:00,6,2023,1/1/1900 3:30,2023-06
9,81734,81734,81734,81734,81734,INCIDENTE,-29.99472222,-51.17111111,PORTO ALEGRE,RS,BRASIL,SBPA,21,18,SIM,FINALIZADA,***,NÃO,,0,1,NÃO,6/21/2023 0:00,6,2023,1/1/1900 18:55,2023-06
10,81733,81733,81733,81733,81733,INCIDENTE,-19.85194444,-43.95055556,BELO HORIZONTE,MG,BRASIL,SBBH,29,17,SIM,FINALIZADA,***,NÃO,,0,1,NÃO,6/29/2023 0:00,6,2023,1/1/1900 17:25,2023-06
11,81732,81732,81732,81732,81732,ACIDENTE,-4.791666667,-42.82416667,UNIÃO,PI,BRASIL,***,28,12,SIM,ATIVA,A-106/CENIPA/2023,NÃO,,0,1,NÃO,6/28/2023 0:00,6,2023,1/1/1900 12:15,2023-06
12,81731,81731,81731,81731,81731,INCIDENTE,-23.00694444,-47.13444444,CAMPINAS,SP,BRASIL,SBKP,21,16,SIM,FINALIZADA,***,NÃO,,0,1,NÃO,6/21/2023 0:00,6,2023,1/1/1900 16:49,2023-06
13,81730,81730,81730,81730,81730,INCIDENTE,-2.586944444,-44.23611111,SÃO LUÍS,MA,BRASIL,SBSL,25,18,SIM,FINALIZADA,***,NÃO,,0,1,NÃO,6/25/2023 0:00,6,2023,1/1/1900 18:48,2023-06
14,81729,81729,81729,81729,81729,INCIDENTE,-3.775833333,-38.53222222,FORTALEZA,CE,BRASIL,SBFZ,19,23,SIM,FINALIZADA,***,NÃO,,0,1,NÃO,6/19/2023 0:00,6,2023,1/1/1900 23:19,2023-06
15,81727,81727,81727,81727,81727,ACIDENTE,-29.19111111,-54.55916667,SANTIAGO,RS,BRASIL,***,19,11,NÃO,ATIVA,A-105/CENIPA/2023,NÃO,,0,1,NÃO,6/19/2023 0:00,6,2023,1/1/1900 11:10,2023-06
16,81726,81726,81726,81726,81726,INCIDENTE,-2.424722222,-54.78583333,SANTARÉM,PA,BRASIL,SBSN,17,13,SIM,FINALIZADA,***,NÃO,,0,1,NÃO,6/17/2023 0:00,6,2023,1/1/1900 13:30,2023-06
17,81725,81725,81725,81725,81725,ACIDENTE,-10.18277778,-48.54527778,PORTO NACIONAL,TO,BRASIL,SWEJ,18,20,SIM,ATIVA,A-104/CENIPA/2023,NÃO,,0,1,SIM,6/18/2023 0:00,6,2023,1/1/1900 20:00,2023-06
18,81724,81724,81724,81724,81724,ACIDENTE,-10.7019786,-48.4110952,PORTO NACIONAL,TO,BRASIL,***,16,14,NÃO,ATIVA,A-103/CENIPA/2023,NÃO,,0,1,NÃO,6/16/2023 0:00,6,2023,1/1/1900 14:00,2023-06
19,81723,81723,81723,81723,81723,INCIDENTE,-22.74361111,-55.23305556,LAGUNA CARAPÃ,MS,BRASIL,SD8A,19,14,SIM,FINALIZADA,***,NÃO,,0,1,NÃO,6/19/2023 0:00,6,2023,1/1/1900 14:45,2023-06
20,81721,81721,81721,81721,81721,INCIDENTE,-21.13638889,-47.77666667,RIBEIRÃO PRETO,SP,BRASIL,SBRP,19,19,SIM,FINALIZADA,***,NÃO,,0,1,NÃO,6/19/2023 0:00,6,2023,1/1/1900 19:45,2023-06
21,81720,81720,81720,81720,81720,INCIDENTE,-23.50666667,-46.63388889,SÃO PAULO,SP,BRASIL,SBMT,19,17,SIM,FINALIZADA,***,NÃO,,0,1,NÃO,6/19/2023 0:00,6,2023,1/1/1900 17:26,2023-06
22,81719,81719,81719,81719,81719,INCIDENTE,-3.10719,-60.0261,MANAUS,AM,BRASIL,SBEG,19,19,SIM,FINALIZADA,***,NÃO,,0,1,NÃO,5/19/2023 0:00,5,2023,1/1/1900 19:08,2023-05
23,81718,81718,81718,81718,81718,ACIDENTE,-16.42,-47.31972222,UNAÍ,MG,BRASIL,***,14,11,SIM,ATIVA,A-102/CENIPA/2023,NÃO,,0,1,NÃO,6/14/2023 0:00,6,2023,1/1/1900 11:20,2023-06
24,81717,81717,81717,81717,81717,INCIDENTE,-19.62444444,-43.97194444,CONFINS,MG,BRASIL,SBCF,10,11,SIM,FINALIZADA,***,NÃO,,0,1,NÃO,6/10/2023 0:00,6,2023,1/1/1900 11:44,2023-06
25,81715,81715,81715,81715,81715,INCIDENTE,-23.43555556,-46.47305556,GUARULHOS,SP,BRASIL,SBGR,16,17,SIM,FINALIZADA,***,NÃO,,0,1,NÃO,6/16/2023 0:00,6,2023,1/1/1900 17:04,2023-06
26,81713,81713,81713,81713,81713,INCIDENTE,3.025,-60.75138889,BOA VISTA,RR,BRASIL,***,15,13,SIM,FINALIZADA,***,NÃO,,0,1,NÃO,6/15/2023 0:00,6,2023,1/1/1900 13:10,2023-06
27,81712,81712,81712,81712,81712,INCIDENTE GRAVE,-17.03833333,-53.30805556,ALTO ARAGUAIA,MT,BRASIL,****,13,15,SIM,ATIVA,IG-101/CENIPA/2023,NÃO,,0,1,SIM,6/13/2023 0:00,6,2023,1/1/1900 15:30,2023-06
28,81711,81711,81711,81711,81711,INCIDENTE GRAVE,-22.28888889,-45.91944444,POUSO ALEGRE,MG,BRASIL,SNZA,15,13,SIM,FINALIZADA,***,NÃO,,0,1,SIM,6/15/2023 0:00,6,2023,1/1/1900 13:10,2023-06
29,81710,81710,81710,81710,81710,ACIDENTE,-30.00166667,-56.80861111,URUGUAIANA,RS,BRASIL,APUA,9,11,SIM,ATIVA,A-098/CENIPA/2023,NÃO,,0,1,SIM,6/9/2023 0:00,6,2023,1/1/1900 11:45,2023-06
30,81709,81709,81709,81709,81709,INCIDENTE,2.765,-62.22138889,ALTO ALEGRE,RR,BRASIL,SJYG,3,21,SIM,FINALIZADA,***,NÃO,,0,1,NÃO,6/3/2023 0:00,6,2023,1/1/1900 21:30,2023-06
31,81708,81708,81708,81708,81708,INCIDENTE,-19.85194444,-43.95055556,BELO HORIZONTE,MG,BRASIL,SBBH,9,12,SIM,FINALIZADA,***,NÃO,,0,1,NÃO,6/9/2023 0:00,6,2023,1/1/1900 12:00,2023-06
32,81707,81707,81707,81707,81707,ACIDENTE,-23.59527778,-46.45138889,SÃO PAULO,SP,BRASIL,***,1,12,SIM,ATIVA,A-093/CENIPA/2023,NÃO,,0,1,NÃO,6/1/2023 0:00,6,2023,1/1/1900 12:24,2023-06
33,81706,81706,81706,81706,81706,ACIDENTE,-5.071666667,-42.81666667,TERESINA,PI,BRASIL,SBTE,12,15,SIM,ATIVA,A-100/CENIPA/2023,NÃO,,0,1,NÃO,6/12/2023 0:00,6,2023,1/1/1900 15:33,2023-06
34,81705,81705,81705,81705,81705,ACIDENTE,-5.036666667,-42.83611111,TERESINA,PI,BRASIL,SBTE,11,14,SIM,ATIVA,A-099/CENIPA/2023,NÃO,,0,1,NÃO,6/11/2023 0:00,6,2023,1/1/1900 14:10,2023-06
35,81704,81704,81704,81704,81704,INCIDENTE,-19.85194444,-43.95055556,BELO HORIZONTE,MG,BRASIL,SBBH,5,11,SIM,FINALIZADA,***,NÃO,,0,1,NÃO,6/5/2023 0:00,6,2023,1/1/1900 11:15,2023-06
36,81701,81701,81701,81701,81701,INCIDENTE,-21.13638889,-47.77666667,RIBEIRÃO PRETO,SP,BRASIL,SBRP,6,11,SIM,FINALIZADA,***,NÃO,,0,1,NÃO,6/6/2023 0:00,6,2023,1/1/1900 11:26,2023-06
37,81700,81700,81700,81700,81700,INCIDENTE,-18.89611111,-41.98333333,GOVERNADOR VALADARES,MG,BRASIL,SBGV,3,12,SIM,FINALIZADA,***,NÃO,,0,1,NÃO,6/3/2023 0:00,6,2023,1/1/1900 12:08,2023-06
38,81699,81699,81699,81699,81699,INCIDENTE,2.3377777777777995,-62.89055556,IRACEMA,RR,BRASIL,***,9,14,SIM,FINALIZADA,***,NÃO,,0,1,NÃO,6/9/2023 0:00,6,2023,1/1/1900 14:55,2023-06
39,81697,81697,81697,81697,81697,ACIDENTE,-7.645,-63.08833333,HUMAITÁ,AM,BRASIL,***,5,12,SIM,ATIVA,A-096/CENIPA/2023,NÃO,,0,1,NÃO,6/5/2023 0:00,6,2023,1/1/1900 12:30,2023-06
40,81696,81696,81696,81696,81696,ACIDENTE,-15.10305556,-53.36305556,NOVO SÃO JOAQUIM,MT,BRASIL,***,3,11,SIM,ATIVA,A-095/CENIPA/2023,NÃO,,0,1,NÃO,6/3/2023 0:00,6,2023,1/1/1900 11:50,2023-06
41,81694,81694,81694,81694,81694,INCIDENTE,-15.87111111,-47.91861111,BRASÍLIA,DF,BRASIL,SBBR,31,20,SIM,FINALIZADA,***,NÃO,,0,1,NÃO,5/31/2023 0:00,5,2023,1/1/1900 20:25,2023-05
42,81693,81693,81693,81693,81693,INCIDENTE,-5.060555556,-42.82444444,TERESINA,PI,BRASIL,SBTE,4,22,SIM,FINALIZADA,***,NÃO,,0,1,NÃO,6/4/2023 0:00,6,2023,1/1/1900 22:32,2023-06
43,81692,81692,81692,81692,81692,ACIDENTE,-16.42638889,-47.87444444,LUZIÂNIA,GO,BRASIL,***,3,11,SIM,ATIVA,A-094/CENIPA/2023,NÃO,,0,1,NÃO,6/3/2023 0:00,6,2023,1/1/1900 11:00,2023-06
44,81691,81691,81691,81691,81691,ACIDENTE,-27.008056,-51.152222,VIDEIRA,SC,BRASIL,SSVI,5,17,SIM,ATIVA,A-097/CENIPA/2023,NÃO,,0,1,NÃO,6/5/2023 0:00,6,2023,1/1/1900 17:53,2023-06
45,81690,81690,81690,81690,81690,INCIDENTE,-22.81,-43.25055556,RIO DE JANEIRO,RJ,BRASIL,SBGL,14,9,SIM,FINALIZADA,***,NÃO,,0,1,NÃO,5/14/2023 0:00,5,2023,1/1/1900 9:35,2023-05
46,81689,81689,81689,81689,81689,INCIDENTE,-22.9875,-43.37,RIO DE JANEIRO,RJ,BRASIL,SBJR,2,10,SIM,FINALIZADA,***,NÃO,,0,1,NÃO,6/2/2023 0:00,6,2023,1/1/1900 10:05,2023-06
47,81688,81688,81688,81688,81688,INCIDENTE GRAVE,-10.60083333,-46.66833333,MATEIROS,TO,BRASIL,***,28,12,SIM,FINALIZADA,***,NÃO,,0,1,NÃO,5/28/2023 0:00,5,2023,1/1/1900 12:30,2023-05
48,81686,81686,81686,81686,81686,INCIDENTE GRAVE,-12.20055556,-38.90638889,FEIRA DE SANTANA,BA,BRASIL,****,30,14,SIM,FINALIZADA,***,NÃO,,0,1,SIM,5/30/2023 0:00,5,2023,1/1/1900 14:00,2023-05
49,81685,81685,81685,81685,81685,ACIDENTE,-23.12833333,-46.57472222,ATIBAIA,SP,BRASIL,SDTB,30,16,SIM,ATIVA,A-092/CENIPA/2023,NÃO,,0,1,NÃO,5/30/2023 0:00,5,2023,1/1/1900 16:00,2023-05
50,81684,81684,81684,81684,81684,ACIDENTE,-5.287222222,-48.61111111,SÃO PEDRO DA ÁGUA BRANCA,MA,BRASIL,***,29,21,NÃO,ATIVA,A-091/CENIPA/2023,NÃO,,0,1,NÃO,5/29/2023 0:00,5,2023,1/1/1900 21:15,2023-05
51,81681,81681,81681,81681,81681,INCIDENTE,-22.91805556,-42.82888889,MARICÁ,RJ,BRASIL,SBMI,29,1,SIM,FINALIZADA,***,NÃO,,0,1,NÃO,5/29/2023 0:00,5,2023,1/1/1900 1:59,2023-05
52,81680,81680,81680,81680,81680,INCIDENTE,-15.87111111,-47.91861111,BRASÍLIA,DF,BRASIL,SBBR,28,13,SIM,FINALIZADA,***,NÃO,,0,1,NÃO,5/28/2023 0:00,5,2023,1/1/1900 13:33,2023-05
53,81679,81679,81679,81679,81679,ACIDENTE,-18.6475,-50.55444444,QUIRINÓPOLIS,GO,BRASIL,SJQN,25,14,NÃO,ATIVA,A-089/CENIPA/2023,NÃO,,0,1,NÃO,5/25/2023 0:00,5,2023,1/1/1900 14:40,2023-05
54,81678,81678,81678,81678,81678,INCIDENTE GRAVE,-15.93722222,-47.72722222,BRASÍLIA,DF,BRASIL,SIQE,26,20,SIM,ATIVA,IG-090/CENIPA/2023,NÃO,,0,1,NÃO,5/26/2023 0:00,5,2023,1/1/1900 20:40,2023-05
55,81673,81673,81673,81673,81673,ACIDENTE,-14.71305556,-45.52416667,COCOS,BA,BRASIL,APUA,23,19,SIM,ATIVA,A-088/CENIPA/2023,NÃO,,0,1,NÃO,5/23/2023 0:00,5,2023,1/1/1900 19:40,2023-05
56,81672,81672,81672,81672,81672,INCIDENTE,-22.71055556,-47.61944444,PIRACICABA,SP,BRASIL,***,23,17,SIM,ATIVA,A DEFINIR,NÃO,,0,2,NÃO,5/23/2023 0:00,5,2023,1/1/1900 17:35,2023-05
57,81671,81671,81671,81671,81671,INCIDENTE,-23.00694444,-47.13444444,CAMPINAS,SP,BRASIL,SBKP,12,14,SIM,FINALIZADA,***,NÃO,,0,1,NÃO,5/12/2023 0:00,5,2023,1/1/1900 14:22,2023-05
58,81653,81653,81653,81653,81653,ACIDENTE,-25.44333333,-49.58527778,CAMPO LARGO,PR,BRASIL,***,21,12,SIM,ATIVA,A-086/CENIPA/2023,NÃO,,0,1,NÃO,5/21/2023 0:00,5,2023,1/1/1900 12:15,2023-05
59,81649,81649,81649,81649,81649,ACIDENTE,-1.861666667,-44.87111111,CURURUPU,MA,BRASIL,SD8H,21,11,SIM,ATIVA,A-087/CENIPA/2023,NÃO,,0,1,SIM,5/21/2023 0:00,5,2023,1/1/1900 11:10,2023-05
60,81633,81633,81633,81633,81633,ACIDENTE,-23.5697765,-46.0407456,BIRITIBA-MIRIM,SP,BRASIL,SDIH,11,20,SIM,FINALIZADA,***,NÃO,,0,1,NÃO,7/11/2020 0:00,7,2020,1/1/1900 20:15,2020-07
61,81624,81624,81624,81624,81624,ACIDENTE,-13.61555556,-52.22444444,CANARANA,MT,BRASIL,***,18,11,SIM,ATIVA,A-085/CENIPA/2023,NÃO,,0,1,NÃO,5/18/2023 0:00,5,2023,1/1/1900 11:25,2023-05
62,81623,81623,81623,81623,81623,ACIDENTE,-19.58416667,-42.69388889,JAGUARAÇU,MG,BRASIL,***,14,11,NÃO,ATIVA,A-082/CENIPA/2023,NÃO,,0,1,NÃO,5/14/2023 0:00,5,2023,1/1/1900 11:50,2023-05
63,81622,81622,81622,81622,81622,INCIDENTE,-20.42305556,-40.3325,VILA VELHA,ES,BRASIL,SIVU,18,14,SIM,FINALIZADA,***,NÃO,,0,1,NÃO,5/18/2023 0:00,5,2023,1/1/1900 14:02,2023-05
64,81621,81621,81621,81621,81621,INCIDENTE GRAVE,-12.357196,-44.976881,SÃO DESIDÉRIO,BA,BRASIL,SDW6,16,18,SIM,ATIVA,IG-083/CENIPA/2023,NÃO,,0,1,SIM,5/16/2023 0:00,5,2023,1/1/1900 18:00,2023-05
65,81620,81620,81620,81620,81620,INCIDENTE,-6.743333333,-66.93361111,ITAMARATI,AM,BRASIL,***,15,18,SIM,FINALIZADA,***,NÃO,,0,1,NÃO,5/15/2023 0:00,5,2023,1/1/1900 18:02,2023-05
66,81618,81618,81618,81618,81618,INCIDENTE,-23.62611111,-46.65638889,SÃO PAULO,SP,BRASIL,SBSP,14,22,SIM,FINALIZADA,***,NÃO,,0,1,NÃO,5/14/2023 0:00,5,2023,1/1/1900 22:39,2023-05
67,81601,81601,81601,81601,81601,INCIDENTE,-16.6325,-49.22111111,GOIÂNIA,GO,BRASIL,SBGO,15,12,SIM,FINALIZADA,***,NÃO,,0,1,NÃO,5/15/2023 0:00,5,2023,1/1/1900 12:42,2023-05
68,81597,81597,81597,81597,81597,INCIDENTE GRAVE,-17.83277778,-50.95555556,RIO VERDE,GO,BRASIL,SWLC,16,14,SIM,ATIVA,IG-084/CENIPA/2023,NÃO,,0,1,SIM,5/16/2023 0:00,5,2023,1/1/1900 14:00,2023-05
69,81587,81587,81587,81587,81587,INCIDENTE,-15.85111111,-56.08777778,SANTO ANTÔNIO DO LEVERGER,MT,BRASIL,SWLV,16,16,SIM,FINALIZADA,***,NÃO,,0,1,NÃO,5/16/2023 0:00,5,2023,1/1/1900 16:17,2023-05
70,81572,81572,81572,81572,81572,INCIDENTE,-19.07805556,-48.12944444,UBERLÂNDIA,MG,BRASIL,SNHD,11,20,SIM,FINALIZADA,***,NÃO,,0,1,NÃO,5/11/2023 0:00,5,2023,1/1/1900 20:15,2023-05
71,81570,81570,81570,81570,81570,INCIDENTE,-26.8898813,-48.6495828,NAVEGANTES,SC,BRASIL,SBNF,15,12,SIM,FINALIZADA,***,NÃO,,0,1,NÃO,5/15/2023 0:00,5,2023,1/1/1900 12:50,2023-05
72,81565,81565,81565,81565,81565,ACIDENTE,-11.34638889,-52.27138889,SÃO FÉLIX DO ARAGUAIA,MT,BRASIL,***,13,11,SIM,ATIVA,A-081/CENIPA/2023,NÃO,,0,1,NÃO,5/13/2023 0:00,5,2023,1/1/1900 11:30,2023-05
73,81564,81564,81564,81564,81564,INCIDENTE GRAVE,-15.39861111,-54.97972222,CAMPO VERDE,MT,BRASIL,***,13,11,SIM,FINALIZADA,***,NÃO,,0,1,SIM,5/13/2023 0:00,5,2023,1/1/1900 11:50,2023-05
74,81563,81563,81563,81563,81563,INCIDENTE,-23.62611111,-46.65638889,SÃO PAULO,SP,BRASIL,SBSP,14,21,SIM,FINALIZADA,***,NÃO,,0,1,NÃO,5/14/2023 0:00,5,2023,1/1/1900 21:36,2023-05
75,81562,81562,81562,81562,81562,INCIDENTE,-23.50666667,-46.63388889,SÃO PAULO,SP,BRASIL,SBMT,12,20,SIM,FINALIZADA,***,NÃO,,0,1,NÃO,5/12/2023 0:00,5,2023,1/1/1900 20:59,2023-05
76,81561,81561,81561,81561,81561,ACIDENTE,-7.346944444,-46.62472222,RIACHÃO,MA,BRASIL,SNRX,11,13,NÃO,ATIVA,A-080/CENIPA/2023,NÃO,,0,1,NÃO,5/11/2023 0:00,5,2023,1/1/1900 13:14,2023-05
77,81560,81560,81560,81560,81560,ACIDENTE,-3.860833333,-46.09361111,ALTO ALEGRE DO PINDARÉ,MA,BRASIL,***,11,12,SIM,ATIVA,A-079/CENIPA/2023,NÃO,,0,1,NÃO,5/11/2023 0:00,5,2023,1/1/1900 12:45,2023-05
78,81559,81559,81559,81559,81559,INCIDENTE,-1.45056,-48.4682453,BELÉM,PA,BRASIL,SBBE,11,12,SIM,FINALIZADA,***,NÃO,,0,1,NÃO,5/11/2023 0:00,5,2023,1/1/1900 12:40,2023-05
79,81558,81558,81558,81558,81558,INCIDENTE,-22.9110137,-43.2093727,RIO DE JANEIRO,RJ,BRASIL,SBJR,11,19,SIM,FINALIZADA,***,NÃO,,0,1,NÃO,5/11/2023 0:00,5,2023,1/1/1900 19:36,2023-05
80,81557,81557,81557,81557,81557,INCIDENTE,-30.0324999,-51.2303767,PORTO ALEGRE,RS,BRASIL,SBPA,6,14,SIM,FINALIZADA,***,NÃO,,0,1,NÃO,5/6/2023 0:00,5,2023,1/1/1900 14:08,2023-05
81,81556,81556,81556,81556,81556,INCIDENTE,-20.4640173,-54.6162947,CAMPO GRANDE,MS,BRASIL,SSIE,11,15,SIM,FINALIZADA,***,NÃO,,0,1,NÃO,5/11/2023 0:00,5,2023,1/1/1900 15:40,2023-05
82,81553,81553,81553,81553,81553,INCIDENTE,-30.0324999,-51.2303767,PORTO ALEGRE,RS,BRASIL,SBPA,4,12,SIM,FINALIZADA,***,NÃO,,0,1,NÃO,5/4/2023 0:00,5,2023,1/1/1900 12:59,2023-05
83,81552,81552,81552,81552,81552,INCIDENTE GRAVE,-12.9822499,-38.4812772,SALVADOR,BA,BRASIL,SBSV,10,4,SIM,ATIVA,IG-078/CENIPA/2023,NÃO,,0,1,SIM,5/10/2023 0:00,5,2023,1/1/1900 4:35,2023-05
84,81551,81551,81551,81551,81551,ACIDENTE,-27.8165664,-50.325883,LAGES,SC,BRASIL,SBLJ,5,14,NÃO,ATIVA,A-075/CENIPA/2023,NÃO,,0,1,NÃO,5/5/2023 0:00,5,2023,1/1/1900 14:00,2023-05
85,81550,81550,81550,81550,81550,INCIDENTE,-22.92083333,-42.07138889,CABO FRIO,RJ,BRASIL,SBCB,8,10,SIM,FINALIZADA,***,NÃO,,0,1,NÃO,5/8/2023 0:00,5,2023,1/1/1900 10:00,2023-05
86,81549,81549,81549,81549,81549,INCIDENTE,-2.586944444,-44.23361111,SÃO LUÍS,MA,BRASIL,SBSL,26,6,SIM,FINALIZADA,***,NÃO,,0,1,NÃO,4/26/2023 0:00,4,2023,1/1/1900 6:33,2023-04
87,81548,81548,81548,81548,81548,ACIDENTE,2.942777778,-60.91944444,BOA VISTA,RR,BRASIL,***,6,20,SIM,ATIVA,A-076/CENIPA/2023,NÃO,,0,1,NÃO,5/6/2023 0:00,5,2023,1/1/1900 20:30,2023-05
88,81547,81547,81547,81547,81547,INCIDENTE,-23.43555556,-46.47305556,GUARULHOS,SP,BRASIL,SBGR,4,15,SIM,FINALIZADA,***,NÃO,,0,1,NÃO,5/4/2023 0:00,5,2023,1/1/1900 15:12,2023-05
89,81545,81545,81545,81545,81545,INCIDENTE,-21.207992,-50.4390225,ARAÇATUBA,SP,BRASIL,SBAU,8,23,SIM,FINALIZADA,***,NÃO,,0,1,NÃO,5/8/2023 0:00,5,2023,1/1/1900 23:30,2023-05
90,81544,81544,81544,81544,81544,INCIDENTE,-22.9110137,-43.2093727,RIO DE JANEIRO,RJ,BRASIL,SBRJ,4,20,SIM,FINALIZADA,***,NÃO,,0,1,NÃO,5/4/2023 0:00,5,2023,1/1/1900 20:23,2023-05
91,81543,81543,81543,81543,81543,ACIDENTE,-20.42305556,-40.3325,VILA VELHA,ES,BRASIL,SIVU,7,12,SIM,ATIVA,A-077/CENIPA/2023,NÃO,,0,1,NÃO,5/7/2023 0:00,5,2023,1/1/1900 12:10,2023-05
92,81542,81542,81542,81542,81542,INCIDENTE,-22.7392463,-47.3306032,AMERICANA,SP,BRASIL,***,5,19,SIM,FINALIZADA,***,NÃO,,0,1,NÃO,5/5/2023 0:00,5,2023,1/1/1900 19:30,2023-05
93,81541,81541,81541,81541,81541,INCIDENTE,-22.9520235,-46.5418586,BRAGANÇA PAULISTA,SP,BRASIL,SBBP,4,19,SIM,FINALIZADA,***,NÃO,,0,1,NÃO,5/4/2023 0:00,5,2023,1/1/1900 19:09,2023-05
94,81540,81540,81540,81540,81540,ACIDENTE,-22.0180395,-47.891154,SÃO CARLOS,SP,BRASIL,***,3,20,NÃO,ATIVA,A-074/CENIPA/2023,NÃO,,0,1,NÃO,5/3/2023 0:00,5,2023,1/1/1900 20:00,2023-05
95,81539,81539,81539,81539,81539,ACIDENTE,-14.88722222,-53.87138889,SANTO ANTÔNIO DO LESTE,MT,BRASIL,***,29,14,NÃO,ATIVA,A-068/CENIPA/2023,NÃO,,0,1,NÃO,4/29/2023 0:00,4,2023,1/1/1900 14:30,2023-04
96,81538,81538,81538,81538,81538,ACIDENTE,-2.99564,-47.3548942,PARAGOMINAS,PA,BRASIL,***,1,16,NÃO,ATIVA,A-072/CENIPA/2023,NÃO,,0,1,NÃO,5/1/2023 0:00,5,2023,1/1/1900 16:48,2023-05
97,81537,81537,81537,81537,81537,INCIDENTE,-22.3218102,-49.0705863,BAURU,SP,BRASIL,SBBU,30,16,SIM,FINALIZADA,***,NÃO,,0,1,SIM,4/30/2023 0:00,4,2023,1/1/1900 16:20,2023-04
98,81536,81536,81536,81536,81536,ACIDENTE,-22.9520235,-46.5418586,BRAGANÇA PAULISTA,SP,BRASIL,***,30,17,NÃO,ATIVA,A-070/CENIPA/2023,NÃO,,0,1,NÃO,4/30/2023 0:00,4,2023,1/1/1900 17:10,2023-04
99,81531,81531,81531,81531,81531,ACIDENTE,-2.513333333,-44.02444444,SÃO JOSÉ DE RIBAMAR,MA,BRASIL,***,1,16,NÃO,ATIVA,A-073/CENIPA/2023,NÃO,,0,1,NÃO,5/1/2023 0:00,5,2023,1/1/1900 16:40,2023-05
100,81529,81529,81529,81529,81529,ACIDENTE,-12.71527778,-60.20194444,VILHENA,RO,BRASIL,****,30,21,SIM,ATIVA,A-071/CENIPA/2023,NÃO,,0,1,SIM,4/30/2023 0:00,4,2023,1/1/1900 21:00,2023-04
101,81528,81528,81528,81528,81528,INCIDENTE,-15.65,-56.1175,CUIABÁ,MT,BRASIL,SBCY,17,9,SIM,FINALIZADA,***,NÃO,,0,1,NÃO,4/17/2023 0:00,4,2023,1/1/1900 9:41,2023-04
102,81527,81527,81527,81527,81527,ACIDENTE,-16.5660011,-45.98645,BONFINÓPOLIS DE MINAS,MG,BRASIL,****,29,20,SIM,ATIVA,A-069/CENIPA/2023,NÃO,,0,1,NÃO,4/29/2023 0:00,4,2023,1/1/1900 20:40,2023-04
103,81526,81526,81526,81526,81526,INCIDENTE GRAVE,-15.65,-56.1175,CUIABÁ,MT,BRASIL,SBCY,30,14,SIM,FINALIZADA,***,NÃO,,0,1,NÃO,4/30/2023 0:00,4,2023,1/1/1900 14:00,2023-04
104,81525,81525,81525,81525,81525,ACIDENTE,-22.95166667,-46.35722222,JOANÓPOLIS,SP,BRASIL,***,28,18,SIM,ATIVA,A-067/CENIPA/2023,NÃO,,0,1,NÃO,4/28/2023 0:00,4,2023,1/1/1900 18:15,2023-04
105,81524,81524,81524,81524,81524,INCIDENTE,-10.3333333,-53.2,BRASÍLIA,DF,BRASIL,SBBR,29,0,SIM,FINALIZADA,***,NÃO,,0,1,NÃO,4/29/2023 0:00,4,2023,1/1/1900 0:30,2023-04
106,81523,81523,81523,81523,81523,INCIDENTE,-23.00694444,-47.13444444,CAMPINAS,SP,BRASIL,SBKP,24,15,SIM,FINALIZADA,***,NÃO,,0,1,NÃO,3/24/2023 0:00,3,2023,1/1/1900 15:16,2023-03
107,81522,81522,81522,81522,81522,ACIDENTE,-2.4525,-44.12833333,RAPOSA,MA,BRASIL,***,27,19,NÃO,ATIVA,A-066/CENIPA/2023,NÃO,,0,1,NÃO,4/27/2023 0:00,4,2023,1/1/1900 19:20,2023-04
108,81512,81512,81512,81512,81512,INCIDENTE,-23.00694444,-47.13444444,CAMPINAS,SP,BRASIL,SBKP,13,7,SIM,FINALIZADA,***,NÃO,,0,1,NÃO,4/13/2023 0:00,4,2023,1/1/1900 7:05,2023-04
109,81499,81499,81499,81499,81499,INCIDENTE,-27.6157733,-48.6276491,SÃO JOSÉ,SC,BRASIL,SSKT,10,18,SIM,FINALIZADA,***,NÃO,,0,2,NÃO,4/10/2023 0:00,4,2023,1/1/1900 18:50,2023-04
110,81498,81498,81498,81498,81498,ACIDENTE,-15.621389,-46.423889,BURITIS,MG,BRASIL,****,19,19,SIM,ATIVA,A-064/CENIPA/2023,NÃO,,0,1,NÃO,4/19/2023 0:00,4,2023,1/1/1900 19:23,2023-04
111,81497,81497,81497,81497,81497,INCIDENTE,-23.18166667,-46.94361111,JUNDIAÍ,SP,BRASIL,SBJD,12,23,SIM,FINALIZADA,***,NÃO,,0,1,NÃO,4/12/2023 0:00,4,2023,1/1/1900 23:46,2023-04
112,81496,81496,81496,81496,81496,INCIDENTE,-19.62444444,-43.97194444,CONFINS,MG,BRASIL,SBCF,15,0,SIM,FINALIZADA,***,NÃO,,0,1,NÃO,4/15/2023 0:00,4,2023,1/1/1900 0:26,2023-04
113,81494,81494,81494,81494,81494,INCIDENTE,-20.42305556,-40.3325,VILA VELHA,ES,BRASIL,SIVU,16,15,SIM,FINALIZADA,***,NÃO,,0,1,NÃO,4/16/2023 0:00,4,2023,1/1/1900 15:18,2023-04
114,81493,81493,81493,81493,81493,INCIDENTE,-23.00694444,-47.13444444,CAMPINAS,SP,BRASIL,SBKP,12,7,SIM,FINALIZADA,***,NÃO,,0,1,NÃO,4/12/2023 0:00,4,2023,1/1/1900 7:51,2023-04
115,81490,81490,81490,81490,81490,INCIDENTE,-21.1776315,-47.8100983,RIBEIRÃO PRETO,SP,BRASIL,SBRP,23,21,SIM,FINALIZADA,***,NÃO,,0,1,NÃO,4/23/2023 0:00,4,2023,1/1/1900 21:26,2023-04
116,81489,81489,81489,81489,81489,ACIDENTE,-5.672222222,-54.255,ALTAMIRA,PA,BRASIL,***,23,11,NÃO,ATIVA,A-065/CENIPA/2023,NÃO,,0,1,NÃO,4/23/2023 0:00,4,2023,1/1/1900 11:44,2023-04
117,81488,81488,81488,81488,81488,INCIDENTE GRAVE,-19.0016365,-57.6534316,CORUMBÁ,MS,BRASIL,SDQ4,22,11,SIM,FINALIZADA,***,NÃO,,0,1,NÃO,4/22/2023 0:00,4,2023,1/1/1900 11:15,2023-04
118,81487,81487,81487,81487,81487,INCIDENTE,-15.65,-56.1175,CUIABÁ,MT,BRASIL,SBCY,15,9,SIM,FINALIZADA,***,NÃO,,0,1,NÃO,4/15/2023 0:00,4,2023,1/1/1900 9:41,2023-04
119,81486,81486,81486,81486,81486,INCIDENTE,-22.9110137,-43.2093727,RIO DE JANEIRO,RJ,BRASIL,SBJR,17,20,SIM,FINALIZADA,***,NÃO,,0,1,NÃO,4/17/2023 0:00,4,2023,1/1/1900 20:30,2023-04
120,81484,81484,81484,81484,81484,INCIDENTE,-8.0584933,-34.8848193,RECIFE,PE,BRASIL,SBRF,7,11,SIM,FINALIZADA,***,NÃO,,0,1,NÃO,4/7/2023 0:00,4,2023,1/1/1900 11:21,2023-04
121,81483,81483,81483,81483,81483,ACIDENTE,-9.060833333,-69.59194444,MANOEL URBANO,AC,BRASIL,***,18,18,SIM,ATIVA,A-063/CENIPA/2023,NÃO,,0,1,NÃO,4/18/2023 0:00,4,2023,1/1/1900 18:30,2023-04
122,81482,81482,81482,81482,81482,INCIDENTE GRAVE,-20.4640173,-54.6162947,CAMPO GRANDE,MS,BRASIL,SSQQ,17,18,SIM,FINALIZADA,***,NÃO,,0,1,SIM,4/17/2023 0:00,4,2023,1/1/1900 18:00,2023-04
123,81481,81481,81481,81481,81481,INCIDENTE,-30.0324999,-51.2303767,PORTO ALEGRE,RS,BRASIL,SBPA,8,14,SIM,FINALIZADA,***,NÃO,,0,1,NÃO,4/8/2023 0:00,4,2023,1/1/1900 14:20,2023-04
124,81480,81480,81480,81480,81480,INCIDENTE,-18.88361111,-48.22527778,UBERLÂNDIA,MG,BRASIL,SBUL,17,15,SIM,FINALIZADA,***,NÃO,,0,1,NÃO,4/17/2023 0:00,4,2023,1/1/1900 15:54,2023-04
125,81479,81479,81479,81479,81479,ACIDENTE,-12.77166667,-56.72694444,TAPURAH,MT,BRASIL,APUA,14,16,SIM,ATIVA,A-062/CENIPA/2023,NÃO,,0,1,NÃO,4/14/2023 0:00,4,2023,1/1/1900 16:00,2023-04
126,81478,81478,81478,81478,81478,INCIDENTE,-15.5625,-54.33055556,PRIMAVERA DO LESTE,MT,BRASIL,SWPY,12,12,SIM,FINALIZADA,***,NÃO,,0,2,NÃO,4/12/2023 0:00,4,2023,1/1/1900 12:45,2023-04
127,81477,81477,81477,81477,81477,INCIDENTE,-20.5531437,-48.5697509,BARRETOS,SP,BRASIL,SNBA,14,20,SIM,FINALIZADA,***,NÃO,,0,1,NÃO,4/14/2023 0:00,4,2023,1/1/1900 20:33,2023-04
128,81476,81476,81476,81476,81476,ACIDENTE,-13.9,-56.98416667,DIAMANTINO,MT,BRASIL,APUA,13,14,SIM,ATIVA,A-061/CENIPA/2023,NÃO,,0,1,NÃO,4/13/2023 0:00,4,2023,1/1/1900 14:10,2023-04
129,81474,81474,81474,81474,81474,INCIDENTE GRAVE,-9.1736775,-40.9734475,CASA NOVA,BA,BRASIL,***,14,11,SIM,FINALIZADA,***,NÃO,,0,1,NÃO,4/14/2023 0:00,4,2023,1/1/1900 11:00,2023-04
130,81472,81472,81472,81472,81472,INCIDENTE GRAVE,-22.66694444,-41.9975,CABO FRIO,RJ,BRASIL,***,12,15,SIM,FINALIZADA,***,NÃO,,0,1,NÃO,4/12/2023 0:00,4,2023,1/1/1900 15:00,2023-04
131,81470,81470,81470,81470,81470,INCIDENTE,-29.6860512,-53.8069214,SANTA MARIA,RS,BRASIL,***,5,14,SIM,FINALIZADA,***,NÃO,,0,1,NÃO,4/5/2023 0:00,4,2023,1/1/1900 14:00,2023-04
132,81469,81469,81469,81469,81469,INCIDENTE,-23.00694444,-47.13444444,CAMPINAS,SP,BRASIL,SBKP,1,21,SIM,FINALIZADA,***,NÃO,,0,1,NÃO,4/1/2023 0:00,4,2023,1/1/1900 21:10,2023-04
133,81468,81468,81468,81468,81468,INCIDENTE,-23.3112878,-51.1595023,LONDRINA,PR,BRASIL,SBLO,13,13,SIM,FINALIZADA,***,NÃO,,0,1,NÃO,4/13/2023 0:00,4,2023,1/1/1900 13:20,2023-04
134,81467,81467,81467,81467,81467,INCIDENTE,-5.768888889,-35.36638889,SÃO GONÇALO DO AMARANTE,RN,BRASIL,SBSG,12,8,SIM,FINALIZADA,***,NÃO,,0,1,NÃO,4/12/2023 0:00,4,2023,1/1/1900 8:46,2023-04
135,81466,81466,81466,81466,81466,INCIDENTE GRAVE,-18.62111111,-52.83305556,CHAPADÃO DO CÉU,GO,BRASIL,SBOQ,11,12,SIM,FINALIZADA,***,NÃO,,0,1,SIM,4/11/2023 0:00,4,2023,1/1/1900 12:00,2023-04
136,81465,81465,81465,81465,81465,INCIDENTE,-23.43555556,-48.43972222,SÃO PAULO,SP,BRASIL,SBGR,9,14,SIM,FINALIZADA,***,NÃO,,0,1,NÃO,4/9/2023 0:00,4,2023,1/1/1900 14:15,2023-04
137,81464,81464,81464,81464,81464,INCIDENTE,-22.9110137,-43.2093727,RIO DE JANEIRO,RJ,BRASIL,9PKD,9,18,SIM,FINALIZADA,***,NÃO,,0,1,NÃO,4/9/2023 0:00,4,2023,1/1/1900 18:09,2023-04
138,81462,81462,81462,81462,81462,INCIDENTE,-12.9822499,-38.4812772,SALVADOR,BA,BRASIL,SBSV,31,9,SIM,FINALIZADA,***,NÃO,,0,1,NÃO,3/31/2023 0:00,3,2023,1/1/1900 9:12,2023-03
139,81460,81460,81460,81460,81460,INCIDENTE,-30.0324999,-51.2303767,PORTO ALEGRE,RS,BRASIL,SBPA,29,18,SIM,FINALIZADA,***,NÃO,,0,1,NÃO,3/29/2023 0:00,3,2023,1/1/1900 18:02,2023-03
140,81459,81459,81459,81459,81459,INCIDENTE,-20.4640173,-54.6162947,CAMPO GRANDE,MS,BRASIL,SBCG,6,12,SIM,FINALIZADA,***,NÃO,,0,1,NÃO,4/6/2023 0:00,4,2023,1/1/1900 12:45,2023-04
141,81457,81457,81457,81457,81457,INCIDENTE,-11.63194444,-50.68833333,SÃO FÉLIX DO ARAGUAIA,MT,BRASIL,SWFX,9,12,SIM,FINALIZADA,***,NÃO,,0,1,NÃO,4/9/2023 0:00,4,2023,1/1/1900 12:20,2023-04
142,81456,81456,81456,81456,81456,ACIDENTE,-27.0922364,-52.6166878,CHAPECÓ,SC,BRASIL,***,4,21,SIM,ATIVA,A-060/CENIPA/2023,NÃO,,0,1,NÃO,4/4/2023 0:00,4,2023,1/1/1900 21:36,2023-04
143,81455,81455,81455,81455,81455,INCIDENTE,2.835277778,-63.64694444,ALTO ALEGRE,RR,BRASIL,SWUQ,4,19,SIM,FINALIZADA,***,NÃO,,0,1,NÃO,4/4/2023 0:00,4,2023,1/1/1900 19:20,2023-04
144,81437,81437,81437,81437,81437,INCIDENTE,-22.9110137,-43.2093727,RIO DE JANEIRO,RJ,BRASIL,SBGL,25,11,SIM,FINALIZADA,***,NÃO,,0,1,NÃO,3/25/2023 0:00,3,2023,1/1/1900 11:55,2023-03
145,81426,81426,81426,81426,81426,ACIDENTE,-29.3626977,-50.8136305,CANELA,RS,BRASIL,SSCN,31,13,SIM,ATIVA,A-058/CENIPA/2023,NÃO,,0,1,SIM,3/31/2023 0:00,3,2023,1/1/1900 13:00,2023-03
146,81424,81424,81424,81424,81424,ACIDENTE,-26.610868,-49.005351,MASSARANDUBA,SC,BRASIL,***,29,11,SIM,ATIVA,A-056/CENIPA/2023,NÃO,,0,1,NÃO,3/29/2023 0:00,3,2023,1/1/1900 11:40,2023-03
147,81422,81422,81422,81422,81422,INCIDENTE,-23.43555556,-46.47305556,SÃO PAULO,SP,BRASIL,SBGR,27,21,SIM,FINALIZADA,***,NÃO,,0,1,NÃO,3/27/2023 0:00,3,2023,1/1/1900 21:24,2023-03
148,81420,81420,81420,81420,81420,INCIDENTE,-20.42277778,-40.31833333,VILA VELHA,ES,BRASIL,SIVU,1,19,SIM,FINALIZADA,***,NÃO,,0,1,NÃO,4/1/2023 0:00,4,2023,1/1/1900 19:22,2023-04
149,81416,81416,81416,81416,81416,INCIDENTE GRAVE,-23.615,-46.66472222,SÃO PAULO,SP,BRASIL,SBSP,10,21,SIM,ATIVA,IG-057/CENIPA/2023,NÃO,,0,2,NÃO,5/10/2022 0:00,5,2022,1/1/1900 21:24,2022-05
150,81414,81414,81414,81414,81414,INCIDENTE,-19.9225776,-43.9451356,BELO HORIZONTE,MG,BRASIL,SBBH,30,13,SIM,FINALIZADA,***,NÃO,,0,1,NÃO,3/30/2023 0:00,3,2023,1/1/1900 13:00,2023-03
151,81413,81413,81413,81413,81413,ACIDENTE,-15.89944444,-52.24083333,ARAGARÇAS,GO,BRASIL,SJVO,31,13,SIM,ATIVA,A-059/CENIPA/2023,NÃO,,0,1,NÃO,3/31/2023 0:00,3,2023,1/1/1900 13:15,2023-03
152,81412,81412,81412,81412,81412,INCIDENTE,-16.66111111,-49.34583333,GOIÂNIA,GO,BRASIL,***,30,19,SIM,FINALIZADA,***,NÃO,,0,1,NÃO,3/30/2023 0:00,3,2023,1/1/1900 19:45,2023-03
153,81411,81411,81411,81411,81411,INCIDENTE,-1.45056,-48.4682453,BELÉM,PA,BRASIL,SBBE,30,18,SIM,FINALIZADA,***,NÃO,,0,1,NÃO,3/30/2023 0:00,3,2023,1/1/1900 18:58,2023-03
154,81409,81409,81409,81409,81409,INCIDENTE,-23.47777778,-47.49,SOROCABA,SP,BRASIL,SDCO,17,17,SIM,FINALIZADA,***,NÃO,,0,1,NÃO,1/17/2023 0:00,1,2023,1/1/1900 17:18,2023-01
155,81407,81407,81407,81407,81407,INCIDENTE,-23.00694444,-47.13444444,CAMPINAS,SP,BRASIL,SBKP,23,20,SIM,FINALIZADA,***,NÃO,,0,1,NÃO,3/23/2023 0:00,3,2023,1/1/1900 20:43,2023-03
156,81405,81405,81405,81405,81405,INCIDENTE,-20.24027778,-40.44,CARIACICA,ES,BRASIL,***,29,13,SIM,FINALIZADA,***,NÃO,,0,1,NÃO,3/29/2023 0:00,3,2023,1/1/1900 13:18,2023-03
157,81404,81404,81404,81404,81404,INCIDENTE,-10.3333333,-53.2,BRASÍLIA,DF,BRASIL,SBBR,21,20,SIM,FINALIZADA,***,NÃO,,0,1,NÃO,3/21/2023 0:00,3,2023,1/1/1900 20:46,2023-03
158,81403,81403,81403,81403,81403,ACIDENTE,2.8666666666667004,-60.68666667,BOA VISTA,RR,BRASIL,***,25,19,SIM,ATIVA,A DEFINIR,NÃO,,0,1,NÃO,3/25/2023 0:00,3,2023,1/1/1900 19:00,2023-03
159,81402,81402,81402,81402,81402,ACIDENTE,-19.24,-48.29333333,UBERABA,MG,BRASIL,****,24,21,SIM,ATIVA,A-053/CENIPA/2023,NÃO,,0,1,NÃO,3/24/2023 0:00,3,2023,1/1/1900 21:30,2023-03
160,81401,81401,81401,81401,81401,ACIDENTE,-12.09666667,-55.82722222,SORRISO,MT,BRASIL,****,24,19,SIM,ATIVA,A-055/CENIPA/2023,NÃO,,0,1,SIM,3/24/2023 0:00,3,2023,1/1/1900 19:00,2023-03
161,81398,81398,81398,81398,81398,ACIDENTE,-29.72111111,-52.19444444,PASSO DO SOBRADO,RS,BRASIL,APUA,23,11,SIM,ATIVA,A-050/CENIPA/2023,NÃO,,0,1,SIM,3/23/2023 0:00,3,2023,1/1/1900 11:20,2023-03
162,81397,81397,81397,81397,81397,INCIDENTE,-23.62611111,-46.65638889,SÃO PAULO,SP,BRASIL,SBSP,20,12,SIM,FINALIZADA,***,NÃO,,0,1,NÃO,3/20/2023 0:00,3,2023,1/1/1900 12:35,2023-03
163,81396,81396,81396,81396,81396,ACIDENTE,-11.63305556,-57.12055556,PORTO DOS GAÚCHOS,MT,BRASIL,****,22,14,SIM,ATIVA,A-051/CENIPA/2023,NÃO,,0,1,NÃO,3/22/2023 0:00,3,2023,1/1/1900 14:20,2023-03
164,81395,81395,81395,81395,81395,ACIDENTE,-12.90611111,-55.30722222,NOVA UBIRATÃ,MT,BRASIL,***,22,16,SIM,ATIVA,A-048/CENIPA/2023,NÃO,,0,1,NÃO,3/22/2023 0:00,3,2023,1/1/1900 16:30,2023-03
165,81394,81394,81394,81394,81394,ACIDENTE,-16.61805556,-49.355,GOIÂNIA,GO,BRASIL,***,22,20,NÃO,ATIVA,A-049/CENIPA/2023,NÃO,,0,1,NÃO,3/22/2023 0:00,3,2023,1/1/1900 20:07,2023-03
166,81393,81393,81393,81393,81393,ACIDENTE,-8.2696905,-49.2676864,CONCEIÇÃO DO ARAGUAIA,PA,BRASIL,***,24,19,NÃO,ATIVA,A-054/CENIPA/2023,NÃO,,0,1,NÃO,3/24/2023 0:00,3,2023,1/1/1900 19:35,2023-03
167,81392,81392,81392,81392,81392,INCIDENTE,-23.50666667,-46.63388889,SÃO PAULO,SP,BRASIL,SBMT,24,14,SIM,FINALIZADA,***,NÃO,,0,1,NÃO,3/24/2023 0:00,3,2023,1/1/1900 14:15,2023-03
168,81391,81391,81391,81391,81391,ACIDENTE,-21.5281123,-46.6434015,CACONDE,SP,BRASIL,***,23,12,SIM,ATIVA,A-052/CENIPA/2023,NÃO,,0,1,NÃO,3/23/2023 0:00,3,2023,1/1/1900 12:30,2023-03
169,81390,81390,81390,81390,81390,INCIDENTE,-29.8790534,-50.7869437,GLORINHA,RS,BRASIL,***,27,19,SIM,FINALIZADA,***,NÃO,,0,1,NÃO,1/27/2023 0:00,1,2023,1/1/1900 19:15,2023-01
170,81388,81388,81388,81388,81388,ACIDENTE,-26.4267153,-49.24747,CORUPÁ,SC,BRASIL,***,21,13,SIM,ATIVA,A-047/CENIPA/2023,NÃO,,0,1,NÃO,3/21/2023 0:00,3,2023,1/1/1900 13:30,2023-03
171,81387,81387,81387,81387,81387,INCIDENTE,-4.628611111,-65.41777778,TEFÉ,AM,BRASIL,****,20,17,SIM,FINALIZADA,***,NÃO,,0,1,NÃO,3/20/2023 0:00,3,2023,1/1/1900 17:00,2023-03
172,81386,81386,81386,81386,81386,ACIDENTE,-10.18222222,-48.53861111,PORTO NACIONAL,TO,BRASIL,SWEJ,18,17,SIM,ATIVA,A-046/CENIPA/2023,NÃO,,0,1,NÃO,3/18/2023 0:00,3,2023,1/1/1900 17:00,2023-03
173,81385,81385,81385,81385,81385,ACIDENTE,-23.52194444,-46.65611111,SÃO PAULO,SP,BRASIL,***,17,17,NÃO,ATIVA,A-045/CENIPA/2023,NÃO,,0,1,NÃO,3/17/2023 0:00,3,2023,1/1/1900 17:30,2023-03
174,81384,81384,81384,81384,81384,INCIDENTE,-2.99564,-47.3548942,PARAGOMINAS,PA,BRASIL,***,3,13,SIM,FINALIZADA,***,NÃO,,0,1,NÃO,3/3/2023 0:00,3,2023,1/1/1900 13:00,2023-03
175,81383,81383,81383,81383,81383,INCIDENTE,-15.65,-56.1175,CUIABÁ,MT,BRASIL,SBCY,17,17,SIM,FINALIZADA,***,NÃO,,0,1,NÃO,3/17/2023 0:00,3,2023,1/1/1900 17:55,2023-03
176,81382,81382,81382,81382,81382,INCIDENTE GRAVE,-17.83472222,-50.95611111,RIO VERDE,GO,BRASIL,SWLC,15,12,SIM,FINALIZADA,***,NÃO,,0,1,SIM,3/15/2023 0:00,3,2023,1/1/1900 12:50,2023-03
177,81381,81381,81381,81381,81381,INCIDENTE,-23.62611111,-46.65638889,SÃO PAULO,SP,BRASIL,SBSP,6,22,SIM,FINALIZADA,***,NÃO,,0,1,NÃO,3/6/2023 0:00,3,2023,1/1/1900 22:26,2023-03
178,81380,81380,81380,81380,81380,INCIDENTE,-23.62611111,-46.65638889,SÃO PAULO,SP,BRASIL,SBSP,13,16,SIM,FINALIZADA,***,NÃO,,0,1,NÃO,2/13/2023 0:00,2,2023,1/1/1900 16:02,2023-02
179,81379,81379,81379,81379,81379,ACIDENTE,-11.51166667,-56.6375,PORTO DOS GAÚCHOS,MT,BRASIL,***,13,13,SIM,ATIVA,A-044/CENIPA/2023,NÃO,,0,1,NÃO,3/13/2023 0:00,3,2023,1/1/1900 13:30,2023-03
180,81377,81377,81377,81377,81377,INCIDENTE,-22.28283055,-41.96490907,MACAÉ,RJ,BRASIL,SBME,6,15,SIM,FINALIZADA,***,NÃO,,0,1,NÃO,3/6/2023 0:00,3,2023,1/1/1900 15:10,2023-03
181,81376,81376,81376,81376,81376,INCIDENTE,-19.91555556,-43.73944444,SABARÁ,MG,BRASIL,***,11,14,NÃO,ATIVA,A-042/CENIPA/2023,NÃO,,0,1,NÃO,3/11/2023 0:00,3,2023,1/1/1900 14:45,2023-03
182,81374,81374,81374,81374,81374,INCIDENTE,-16.70611111,-43.82194444,MONTES CLAROS,MG,BRASIL,SBMK,25,18,SIM,FINALIZADA,***,NÃO,,0,1,NÃO,2/25/2023 0:00,2,2023,1/1/1900 18:10,2023-02
183,81373,81373,81373,81373,81373,INCIDENTE,-23.18166667,-46.94361111,JUNDIAÍ,SP,BRASIL,SBJD,12,22,SIM,FINALIZADA,***,NÃO,,0,1,NÃO,3/12/2023 0:00,3,2023,1/1/1900 22:48,2023-03
184,81372,81372,81372,81372,81372,INCIDENTE,-25.53166667,-49.17611111,CURITIBA,PR,BRASIL,SBCT,4,14,SIM,FINALIZADA,***,NÃO,,0,1,NÃO,3/4/2023 0:00,3,2023,1/1/1900 14:07,2023-03
185,81371,81371,81371,81371,81371,INCIDENTE,-22.9110137,-43.2093727,RIO DE JANEIRO,RJ,BRASIL,***,1,19,SIM,FINALIZADA,***,NÃO,,0,1,NÃO,3/1/2023 0:00,3,2023,1/1/1900 19:30,2023-03
186,81370,81370,81370,81370,81370,INCIDENTE,-10.3333333,-53.2,BRASÍLIA,DF,BRASIL,SBBR,11,22,SIM,FINALIZADA,***,NÃO,,0,1,NÃO,3/11/2023 0:00,3,2023,1/1/1900 22:30,2023-03
187,81369,81369,81369,81369,81369,INCIDENTE,-15.65,-56.1175,CUIABÁ,MT,BRASIL,SBCY,7,11,SIM,FINALIZADA,***,NÃO,,0,1,NÃO,3/7/2023 0:00,3,2023,1/1/1900 11:20,2023-03
188,81368,81368,81368,81368,81368,INCIDENTE,-19.62444444,-43.97194444,CONFINS,MG,BRASIL,SBCF,4,10,SIM,FINALIZADA,***,NÃO,,0,1,NÃO,3/4/2023 0:00,3,2023,1/1/1900 10:10,2023-03
189,81366,81366,81366,81366,81366,ACIDENTE,-11.39111111,-58.8075,JUÍNA,MT,BRASIL,SWJN,3,11,SIM,ATIVA,A-041/CENIPA/2023,NÃO,,0,1,NÃO,3/3/2023 0:00,3,2023,1/1/1900 11:00,2023-03
190,81365,81365,81365,81365,81365,ACIDENTE,-19.9225776,-43.9451356,BELO HORIZONTE,MG,BRASIL,SBPR,11,17,NÃO,ATIVA,A-043/CENIPA/2023,NÃO,,0,1,SIM,3/11/2023 0:00,3,2023,1/1/1900 17:35,2023-03
191,81363,81363,81363,81363,81363,INCIDENTE,-1.45056,-48.4682453,BELÉM,PA,BRASIL,SBBE,1,11,SIM,FINALIZADA,***,NÃO,,0,1,NÃO,3/1/2023 0:00,3,2023,1/1/1900 11:56,2023-03
192,81362,81362,81362,81362,81362,INCIDENTE,-23.62611111,-46.65638889,SÃO PAULO,SP,BRASIL,SBSP,12,23,SIM,FINALIZADA,***,NÃO,,0,1,NÃO,3/12/2023 0:00,3,2023,1/1/1900 23:30,2023-03
193,81361,81361,81361,81361,81361,INCIDENTE,-10.29,-48.35777778,PALMAS,TO,BRASIL,SBPJ,12,16,SIM,FINALIZADA,***,NÃO,,0,1,NÃO,3/12/2023 0:00,3,2023,1/1/1900 16:35,2023-03
194,81359,81359,81359,81359,81359,INCIDENTE,-22.9110137,-43.2093727,RIO DE JANEIRO,RJ,BRASIL,****,26,17,SIM,FINALIZADA,***,NÃO,,0,1,NÃO,2/26/2023 0:00,2,2023,1/1/1900 17:20,2023-02
195,81358,81358,81358,81358,81358,INCIDENTE,-22.4203497,-50.5792099,PARAGUAÇU PAULISTA,SP,BRASIL,***,7,13,SIM,FINALIZADA,***,NÃO,,0,1,NÃO,3/7/2023 0:00,3,2023,1/1/1900 13:15,2023-03
196,81355,81355,81355,81355,81355,INCIDENTE,-10.3333333,-53.2,BRASÍLIA,DF,BRASIL,SBBR,28,15,SIM,FINALIZADA,***,NÃO,,0,1,NÃO,2/28/2023 0:00,2,2023,1/1/1900 15:03,2023-02
197,81354,81354,81354,81354,81354,ACIDENTE,-5.522222222,-59.54305556,NOVO ARIPUANÃ,AM,BRASIL,***,21,10,SIM,ATIVA,A-040/CENIPA/2023,NÃO,,0,1,NÃO,2/21/2023 0:00,2,2023,1/1/1900 10:30,2023-02
198,81353,81353,81353,81353,81353,ACIDENTE,-16.63277778,-49.24333333,GOIÂNIA,GO,BRASIL,***,28,19,SIM,ATIVA,A-039/CENIPA/2023,NÃO,,0,1,NÃO,2/28/2023 0:00,2,2023,1/1/1900 19:40,2023-02
199,81350,81350,81350,81350,81350,INCIDENTE,-19.62444444,-43.97194444,CONFINS,MG,BRASIL,SBCF,27,9,SIM,FINALIZADA,***,NÃO,,0,1,NÃO,2/27/2023 0:00,2,2023,1/1/1900 9:17,2023-02
200,81349,81349,81349,81349,81349,ACIDENTE,-23.00611111,-45.68055556,TAUBATÉ,SP,BRASIL,****,27,13,SIM,ATIVA,A-038/CENIPA/2023,NÃO,,0,1,NÃO,2/27/2023 0:00,2,2023,1/1/1900 13:30,2023-02
201,81348,81348,81348,81348,81348,INCIDENTE GRAVE,-22.82833333,-47.11777778,CAMPINAS,SP,BRASIL,***,27,15,SIM,FINALIZADA,***,NÃO,,0,1,NÃO,2/27/2023 0:00,2,2023,1/1/1900 15:00,2023-02
202,81347,81347,81347,81347,81347,ACIDENTE,-23.0622152,-54.2018319,NAVIRAÍ,MS,BRASIL,****,25,15,SIM,ATIVA,A-037/CENIPA/2023,NÃO,,0,1,NÃO,2/25/2023 0:00,2,2023,1/1/1900 15:30,2023-02
203,81346,81346,81346,81346,81346,INCIDENTE,-22.9520235,-46.5418586,BRAGANÇA PAULISTA,SP,BRASIL,SBBP,26,21,SIM,FINALIZADA,***,NÃO,,0,1,NÃO,2/26/2023 0:00,2,2023,1/1/1900 21:57,2023-02
204,81345,81345,81345,81345,81345,ACIDENTE,-20.69972222,-49.60222222,TANABI,SP,BRASIL,****,22,21,SIM,ATIVA,A-035/CENIPA/2023,NÃO,,0,1,NÃO,2/22/2023 0:00,2,2023,1/1/1900 21:00,2023-02
205,81344,81344,81344,81344,81344,INCIDENTE,-1.45056,-48.4682453,BELÉM,PA,BRASIL,SBBE,20,20,SIM,FINALIZADA,***,NÃO,,0,1,NÃO,2/20/2023 0:00,2,2023,1/1/1900 20:29,2023-02
206,81343,81343,81343,81343,81343,INCIDENTE,2.787222222,-60.59583333,CANTÁ,RR,BRASIL,SWPD,23,21,SIM,FINALIZADA,***,NÃO,,0,1,NÃO,2/23/2023 0:00,2,2023,1/1/1900 21:54,2023-02
207,81342,81342,81342,81342,81342,ACIDENTE,-25.1125,-48.80166667,CAMPINA GRANDE DO SUL,PR,BRASIL,***,15,17,SIM,ATIVA,A-026/CENIPA/2023,NÃO,,0,1,NÃO,2/15/2023 0:00,2,2023,1/1/1900 17:45,2023-02
208,81341,81341,81341,81341,81341,INCIDENTE,-23.43555556,-46.47305556,GUARULHOS,SP,BRASIL,SBGR,25,14,SIM,FINALIZADA,***,NÃO,,0,1,NÃO,2/25/2023 0:00,2,2023,1/1/1900 14:00,2023-02
209,81340,81340,81340,81340,81340,ACIDENTE,-28.6592237,-56.0044295,SÃO BORJA,RS,BRASIL,APUA,22,21,SIM,ATIVA,A-036/CENIPA/2023,NÃO,,0,1,NÃO,2/22/2023 0:00,2,2023,1/1/1900 21:20,2023-02
210,81339,81339,81339,81339,81339,ACIDENTE,-22.7392463,-47.3306032,AMERICANA,SP,BRASIL,***,18,14,SIM,ATIVA,A-031/CENIPA/2023,NÃO,,0,1,NÃO,2/18/2023 0:00,2,2023,1/1/1900 14:30,2023-02
211,81338,81338,81338,81338,81338,INCIDENTE,-2.586944444,-44.23611111,SÃO LUÍS,MA,BRASIL,SBSL,18,14,SIM,FINALIZADA,***,NÃO,,0,1,NÃO,2/18/2023 0:00,2,2023,1/1/1900 14:30,2023-02
212,81337,81337,81337,81337,81337,ACIDENTE,-7.0374884,-55.4185904,NOVO PROGRESSO,PA,BRASIL,SJNP,18,15,NÃO,FINALIZADA,***,NÃO,,0,1,NÃO,2/18/2023 0:00,2,2023,1/1/1900 15:30,2023-02
213,81336,81336,81336,81336,81336,ACIDENTE,-19.0016365,-57.6534316,CORUMBÁ,MS,BRASIL,****,21,19,SIM,ATIVA,A-034/CENIPA/2023,NÃO,,0,1,NÃO,2/21/2023 0:00,2,2023,1/1/1900 19:00,2023-02
214,81335,81335,81335,81335,81335,INCIDENTE GRAVE,-2.985555556,-48.89,TAILÂNDIA,PA,BRASIL,****,16,19,SIM,FINALIZADA,,NÃO,,0,1,NÃO,2/16/2023 0:00,2,2023,1/1/1900 19:00,2023-02
215,81334,81334,81334,81334,81334,ACIDENTE,-19.89055556,-44.05666667,CONTAGEM,MG,BRASIL,***,19,12,SIM,ATIVA,A-032/CENIPA/2023,NÃO,,0,1,NÃO,2/19/2023 0:00,2,2023,1/1/1900 12:30,2023-02
216,81332,81332,81332,81332,81332,INCIDENTE,-16.6325,-49.22111111,GOIÂNIA,GO,BRASIL,SBGO,8,10,SIM,FINALIZADA,***,NÃO,,0,1,NÃO,2/8/2023 0:00,2,2023,1/1/1900 10:30,2023-02
217,81330,81330,81330,81330,81330,INCIDENTE,-3.250833333,-52.25222222,ALTAMIRA,PA,BRASIL,SBHT,17,16,SIM,FINALIZADA,***,NÃO,,0,1,NÃO,2/17/2023 0:00,2,2023,1/1/1900 16:32,2023-02
218,81329,81329,81329,81329,81329,INCIDENTE,-10.3333333,-53.2,BRASÍLIA,DF,BRASIL,SBBR,9,15,SIM,FINALIZADA,***,NÃO,,0,1,NÃO,2/9/2023 0:00,2,2023,1/1/1900 15:10,2023-02
219,81328,81328,81328,81328,81328,ACIDENTE,-18.450555,-50.4546981,QUIRINÓPOLIS,GO,BRASIL,***,14,11,SIM,ATIVA,A-027/CENIPA/2023,NÃO,,0,1,NÃO,2/14/2023 0:00,2,2023,1/1/1900 11:50,2023-02
220,81327,81327,81327,81327,81327,ACIDENTE,-31.94777778,-52.675,PEDRO OSÓRIO,RS,BRASIL,APUA,20,15,SIM,ATIVA,A-033/CENIPA/2023,NÃO,,0,1,NÃO,2/20/2023 0:00,2,2023,1/1/1900 15:20,2023-02
221,81326,81326,81326,81326,81326,INCIDENTE,-23.00694444,-47.13444444,CAMPINAS,SP,BRASIL,SBKP,14,8,SIM,FINALIZADA,***,NÃO,,0,1,NÃO,2/14/2023 0:00,2,2023,1/1/1900 8:42,2023-02
222,81325,81325,81325,81325,81325,INCIDENTE,-21.52305556,-48.33138889,DOBRADA,SP,BRASIL,***,18,14,SIM,FINALIZADA,***,NÃO,,0,1,NÃO,2/18/2023 0:00,2,2023,1/1/1900 14:50,2023-02
223,81323,81323,81323,81323,81323,INCIDENTE GRAVE,-21.7318163,-41.3289071,SÃO JOSÉ DOS CAMPOS,SP,BRASIL,SBSJ,16,12,SIM,FINALIZADA,***,NÃO,,0,1,SIM,2/16/2023 0:00,2,2023,1/1/1900 12:19,2023-02
224,81322,81322,81322,81322,81322,ACIDENTE,-17.5787,-52.5424,MINEIROS,GO,BRASIL,****,15,14,SIM,ATIVA,A-028/CENIPA/2023,NÃO,,0,1,SIM,2/15/2023 0:00,2,2023,1/1/1900 14:00,2023-02
225,81321,81321,81321,81321,81321,INCIDENTE,2.7836111111111004,-60.58777778,CANTÁ,RR,BRASIL,SWPD,11,16,SIM,FINALIZADA,***,NÃO,,0,1,NÃO,2/11/2023 0:00,2,2023,1/1/1900 16:33,2023-02
226,81320,81320,81320,81320,81320,ACIDENTE,-33.5198333,-53.3693967,SANTA VITÓRIA DO PALMAR,RS,BRASIL,***,16,11,SIM,ATIVA,A-030/CENIPA/2023,NÃO,,0,1,NÃO,2/16/2023 0:00,2,2023,1/1/1900 11:00,2023-02
227,81319,81319,81319,81319,81319,INCIDENTE,3.293055556,-61.20166667,BOA VISTA,RR,BRASIL,***,13,17,SIM,FINALIZADA,***,NÃO,,0,1,NÃO,2/13/2023 0:00,2,2023,1/1/1900 17:20,2023-02
228,81318,81318,81318,81318,81318,INCIDENTE,-25.00222222,-53.50194444,CASCAVEL,PR,BRASIL,SBCA,8,11,SIM,FINALIZADA,***,NÃO,,0,1,NÃO,2/8/2023 0:00,2,2023,1/1/1900 11:57,2023-02
229,81317,81317,81317,81317,81317,INCIDENTE,-27.5973002,-48.5496098,FLORIANÓPOLIS,SC,BRASIL,***,6,21,SIM,FINALIZADA,***,NÃO,,0,1,NÃO,2/6/2023 0:00,2,2023,1/1/1900 21:00,2023-02
230,81316,81316,81316,81316,81316,INCIDENTE GRAVE,-16.97805556,-50.94416667,PARAÚNA,GO,BRASIL,***,14,12,SIM,FINALIZADA,***,NÃO,,0,1,NÃO,2/14/2023 0:00,2,2023,1/1/1900 12:00,2023-02
231,81315,81315,81315,81315,81315,INCIDENTE,-3.1316333,-59.9825041,MANAUS,AM,BRASIL,SWFN,19,20,SIM,FINALIZADA,***,NÃO,,0,1,NÃO,12/19/2022 0:00,12,2022,1/1/1900 20:00,2022-12
232,81314,81314,81314,81314,81314,INCIDENTE GRAVE,-31.67527778,-52.25638889,PELOTAS,RS,BRASIL,APUA,13,20,SIM,FINALIZADA,***,NÃO,,0,1,NÃO,2/13/2023 0:00,2,2023,1/1/1900 20:40,2023-02
233,81313,81313,81313,81313,81313,INCIDENTE,-23.7621152,-53.3116192,UMUARAMA,PR,BRASIL,SSUM,11,10,SIM,FINALIZADA,***,NÃO,,0,1,NÃO,2/11/2023 0:00,2,2023,1/1/1900 10:15,2023-02
234,81311,81311,81311,81311,81311,INCIDENTE GRAVE,-29.3626977,-50.8136305,CANELA,RS,BRASIL,SSCN,11,19,SIM,FINALIZADA,***,NÃO,,0,1,SIM,2/11/2023 0:00,2,2023,1/1/1900 19:10,2023-02
235,81310,81310,81310,81310,81310,INCIDENTE GRAVE,-33.5198333,-53.3693967,SANTA VITÓRIA DO PALMAR,RS,BRASIL,APUA,12,11,SIM,FINALIZADA,***,NÃO,,0,1,NÃO,2/12/2023 0:00,2,2023,1/1/1900 11:09,2023-02
236,81309,81309,81309,81309,81309,INCIDENTE,-23.00694444,-47.13444444,CAMPINAS,SP,BRASIL,SBKP,2,20,SIM,FINALIZADA,***,NÃO,,0,1,NÃO,2/2/2023 0:00,2,2023,1/1/1900 20:04,2023-02
237,81308,81308,81308,81308,81308,INCIDENTE,-23.00694444,-47.13444444,CAMPINAS,SP,BRASIL,SBKP,29,2,SIM,FINALIZADA,***,NÃO,,0,1,NÃO,1/29/2023 0:00,1,2023,1/1/1900 2:02,2023-01
238,81307,81307,81307,81307,81307,INCIDENTE,-23.43555556,-46.47305556,GUARULHOS,SP,BRASIL,SBGR,13,10,SIM,FINALIZADA,***,NÃO,,0,1,NÃO,2/13/2023 0:00,2,2023,1/1/1900 10:55,2023-02
239,81306,81306,81306,81306,81306,ACIDENTE,-15.10444444,-54.55361111,CAMPO VERDE,MT,BRASIL,***,10,9,SIM,ATIVA,A-025/CENIPA/2023,NÃO,,0,1,NÃO,2/10/2023 0:00,2,2023,1/1/1900 9:45,2023-02
240,81305,81305,81305,81305,81305,ACIDENTE,-20.64722222,-40.9775,VARGEM ALTA,ES,BRASIL,***,9,21,NÃO,ATIVA,A-024/CENIPA/2023,NÃO,,0,1,NÃO,2/9/2023 0:00,2,2023,1/1/1900 21:30,2023-02
241,81304,81304,81304,81304,81304,INCIDENTE,-23.00694444,-47.13444444,CAMPINAS,SP,BRASIL,SBKP,28,6,SIM,FINALIZADA,***,NÃO,,0,1,NÃO,1/28/2023 0:00,1,2023,1/1/1900 6:00,2023-01
242,81303,81303,81303,81303,81303,INCIDENTE,-23.00694444,-47.13444444,CAMPINAS,SP,BRASIL,SBKP,31,22,SIM,FINALIZADA,***,NÃO,,0,1,NÃO,1/31/2023 0:00,1,2023,1/1/1900 22:24,2023-01
243,81302,81302,81302,81302,81302,ACIDENTE,-27.6350709,-52.2738654,ERECHIM,RS,BRASIL,***,8,21,NÃO,ATIVA,A-023/CENIPA/2023,NÃO,,0,1,NÃO,2/8/2023 0:00,2,2023,1/1/1900 21:40,2023-02
244,81301,81301,81301,81301,81301,ACIDENTE,-4.2519172,-49.9524257,NOVO REPARTIMENTO,PA,BRASIL,***,7,9,NÃO,FINALIZADA,***,NÃO,,0,1,NÃO,2/7/2023 0:00,2,2023,1/1/1900 9:35,2023-02
245,81300,81300,81300,81300,81300,INCIDENTE GRAVE,-20.25805556,-40.28638889,VITÓRIA,ES,BRASIL,SBVT,8,14,SIM,FINALIZADA,***,NÃO,,0,1,NÃO,2/8/2023 0:00,2,2023,1/1/1900 14:32,2023-02
246,81299,81299,81299,81299,81299,ACIDENTE,-14.483056,-60.113889,VILA BELA DA SANTÍSSIMA TRINDADE,MT,BRASIL,***,4,20,SIM,ATIVA,A-021/CENIPA/2023,NÃO,,0,1,NÃO,2/4/2023 0:00,2,2023,1/1/1900 20:00,2023-02
247,81298,81298,81298,81298,81298,INCIDENTE,-23.00694444,-47.13444444,CAMPINAS,SP,BRASIL,SBKP,30,6,SIM,FINALIZADA,***,NÃO,,0,1,NÃO,1/30/2023 0:00,1,2023,1/1/1900 6:00,2023-01
248,81297,81297,81297,81297,81297,ACIDENTE,-6.094722222,-52.24055556,SÃO FÉLIX DO XINGU,PA,BRASIL,***,6,10,SIM,ATIVA,A-022/CENIPA/2023,NÃO,,0,1,NÃO,2/6/2023 0:00,2,2023,1/1/1900 10:55,2023-02
249,81296,81296,81296,81296,81296,INCIDENTE,-23.00694444,-47.13444444,CAMPINAS,SP,BRASIL,SBKP,3,1,SIM,FINALIZADA,***,NÃO,,0,1,NÃO,2/3/2023 0:00,2,2023,1/1/1900 1:25,2023-02
250,81295,81295,81295,81295,81295,INCIDENTE,-16.6325,-49.22111111,GOIÂNIA,GO,BRASIL,SBGO,24,20,SIM,FINALIZADA,***,NÃO,,0,1,NÃO,1/24/2023 0:00,1,2023,1/1/1900 20:05,2023-01
251,81294,81294,81294,81294,81294,INCIDENTE,-25.53166667,-49.17611111,CURITIBA,PR,BRASIL,SBCT,13,9,SIM,FINALIZADA,***,NÃO,,0,1,NÃO,1/13/2023 0:00,1,2023,1/1/1900 9:23,2023-01
252,81293,81293,81293,81293,81293,INCIDENTE,-25.40333333,-49.23361111,CURITIBA,PR,BRASIL,SBBI,4,19,SIM,FINALIZADA,***,NÃO,,0,1,NÃO,2/4/2023 0:00,2,2023,1/1/1900 19:00,2023-02
253,81292,81292,81292,81292,81292,INCIDENTE,-30.0324999,-51.2303767,PORTO ALEGRE,RS,BRASIL,SSBN,5,13,SIM,FINALIZADA,***,NÃO,,0,1,NÃO,2/5/2023 0:00,2,2023,1/1/1900 13:54,2023-02
254,81290,81290,81290,81290,81290,INCIDENTE,-22.9110137,-43.2093727,RIO DE JANEIRO,RJ,BRASIL,SBRJ,13,9,SIM,FINALIZADA,***,NÃO,,0,1,NÃO,1/13/2023 0:00,1,2023,1/1/1900 9:24,2023-01
255,81289,81289,81289,81289,81289,ACIDENTE,-4.2625218,-55.9878139,ITAITUBA,PA,BRASIL,SNEJ,3,15,NÃO,ATIVA,A-020/CENIPA/2023,NÃO,,0,1,SIM,2/3/2023 0:00,2,2023,1/1/1900 15:10,2023-02
256,81288,81288,81288,81288,81288,INCIDENTE,-18.44444444,-49.21361111,ITUMBIARA,GO,BRASIL,SBIT,9,18,SIM,FINALIZADA,***,NÃO,,0,1,NÃO,1/9/2023 0:00,1,2023,1/1/1900 18:00,2023-01
257,81287,81287,81287,81287,81287,INCIDENTE,-16.58805556,-54.72166667,RONDONÓPOLIS,MT,BRASIL,SBRD,4,16,SIM,FINALIZADA,***,NÃO,,0,1,NÃO,1/4/2023 0:00,1,2023,1/1/1900 16:05,2023-01
258,81286,81286,81286,81286,81286,ACIDENTE,-10.94722222,-54.355,MARCELÂNDIA,MT,BRASIL,***,28,13,SIM,ATIVA,A-018/CENIPA/2023,NÃO,,0,1,NÃO,1/28/2023 0:00,1,2023,1/1/1900 13:30,2023-01
259,81285,81285,81285,81285,81285,ACIDENTE,-18.7228793,-49.2016329,CANÁPOLIS,MG,BRASIL,****,30,20,SIM,ATIVA,A-019/CENIPA/2023,NÃO,,0,1,SIM,1/30/2023 0:00,1,2023,1/1/1900 20:00,2023-01
260,81284,81284,81284,81284,81284,INCIDENTE GRAVE,-10.5625,-46.42805556,MATEIROS,TO,BRASIL,****,28,12,SIM,ATIVA,IG-016/CENIPA/2023,NÃO,,0,1,SIM,1/28/2023 0:00,1,2023,1/1/1900 12:00,2023-01
261,81283,81283,81283,81283,81283,INCIDENTE,-20.25805556,-40.28638889,VITÓRIA,ES,BRASIL,SBVT,27,14,SIM,FINALIZADA,***,NÃO,,0,1,NÃO,1/27/2023 0:00,1,2023,1/1/1900 14:05,2023-01
262,81282,81282,81282,81282,81282,INCIDENTE,-18.88361111,-48.22527778,UBERLÂNDIA,MG,BRASIL,SBUL,27,13,SIM,FINALIZADA,***,NÃO,,0,1,NÃO,1/27/2023 0:00,1,2023,1/1/1900 13:18,2023-01
263,81281,81281,81281,81281,81281,INCIDENTE GRAVE,-21.3025544,-52.8262142,SANTA RITA DO PARDO,MS,BRASIL,***,27,19,SIM,FINALIZADA,***,NÃO,,0,1,NÃO,1/27/2023 0:00,1,2023,1/1/1900 19:30,2023-01
264,81276,81276,81276,81276,81276,ACIDENTE,-23.44138889,-45.07611111,UBATUBA,SP,BRASIL,SDUB,28,16,SIM,ATIVA,A-017/CENIPA/2023,NÃO,,0,1,NÃO,1/28/2023 0:00,1,2023,1/1/1900 16:00,2023-01
265,81275,81275,81275,81275,81275,ACIDENTE,-1.45056,-48.4682453,BELÉM,PA,BRASIL,SWEQ,27,13,SIM,ATIVA,A-015/CENIPA/2023,NÃO,,0,1,NÃO,1/27/2023 0:00,1,2023,1/1/1900 13:20,2023-01
266,81274,81274,81274,81274,81274,INCIDENTE,-23.43555556,-46.47305556,GUARULHOS,SP,BRASIL,SBGR,23,3,SIM,FINALIZADA,***,NÃO,,0,1,NÃO,1/23/2023 0:00,1,2023,1/1/1900 3:15,2023-01
267,81273,81273,81273,81273,81273,INCIDENTE,-22.9110137,-43.2093727,RIO DE JANEIRO,RJ,BRASIL,SBGL,13,9,SIM,FINALIZADA,***,NÃO,,0,1,NÃO,1/13/2023 0:00,1,2023,1/1/1900 9:24,2023-01
268,81272,81272,81272,81272,81272,INCIDENTE,-22.9110137,-43.2093727,RIO DE JANEIRO,RJ,BRASIL,SBGL,14,20,SIM,FINALIZADA,***,NÃO,,0,1,NÃO,12/14/2022 0:00,12,2022,1/1/1900 20:09,2022-12
269,81271,81271,81271,81271,81271,ACIDENTE,-19.56361111,-50.35555556,ITURAMA,MG,BRASIL,****,25,20,NÃO,ATIVA,A-013/CENIPA/2023,NÃO,,0,1,NÃO,1/25/2023 0:00,1,2023,1/1/1900 20:59,2023-01
270,81269,81269,81269,81269,81269,ACIDENTE,-22.7630391,-47.1532213,PAULÍNIA,SP,BRASIL,***,25,12,SIM,FINALIZADA,***,NÃO,,0,1,NÃO,1/25/2023 0:00,1,2023,1/1/1900 12:00,2023-01
271,81268,81268,81268,81268,81268,ACIDENTE,-22.7392463,-47.3306032,AMERICANA,SP,BRASIL,SDAI,26,11,SIM,ATIVA,A-014/CENIPA/2023,NÃO,,0,1,NÃO,1/26/2023 0:00,1,2023,1/1/1900 11:38,2023-01
272,81267,81267,81267,81267,81267,INCIDENTE,-23.61222222,-51.385,APUCARANA,PR,BRASIL,SSAP,20,22,SIM,FINALIZADA,***,NÃO,,0,1,NÃO,1/20/2023 0:00,1,2023,1/1/1900 22:15,2023-01
273,81266,81266,81266,81266,81266,ACIDENTE,-14.2779427,-38.9955683,ITACARÉ,BA,BRASIL,***,22,16,SIM,ATIVA,A-010/CENIPA/2023,NÃO,,0,1,NÃO,1/22/2023 0:00,1,2023,1/1/1900 16:20,2023-01
274,81265,81265,81265,81265,81265,INCIDENTE,-16.2815556,-39.0239196,SANTA CRUZ CABRÁLIA,BA,BRASIL,***,21,17,SIM,FINALIZADA,***,NÃO,,0,1,NÃO,1/21/2023 0:00,1,2023,1/1/1900 17:35,2023-01
275,81264,81264,81264,81264,81264,INCIDENTE GRAVE,-17.35027778,-50.06361111,NÃO IDENTIFICADA,GO,BRASIL,***,25,14,SIM,FINALIZADA,***,NÃO,,0,1,NÃO,1/25/2023 0:00,1,2023,1/1/1900 14:00,2023-01
276,81263,81263,81263,81263,81263,ACIDENTE,-27.8165664,-50.325883,LAGES,SC,BRASIL,***,25,20,SIM,ATIVA,A-012/CENIPA/2023,NÃO,,0,1,NÃO,1/25/2023 0:00,1,2023,1/1/1900 20:50,2023-01
277,81262,81262,81262,81262,81262,INCIDENTE,-15.59583333,-56.00416667,CUIABÁ,MT,BRASIL,SWXJ,24,12,SIM,FINALIZADA,***,NÃO,,0,1,NÃO,1/24/2023 0:00,1,2023,1/1/1900 12:25,2023-01
278,81261,81261,81261,81261,81261,ACIDENTE,-11.917222,-58.158889,BRASNORTE,MT,BRASIL,***,22,17,SIM,ATIVA,A-011/CENIPA/2023,NÃO,,0,1,NÃO,1/22/2023 0:00,1,2023,1/1/1900 17:00,2023-01
279,81260,81260,81260,81260,81260,ACIDENTE,-10.97333333,-57.07833333,JUARA,MT,BRASIL,***,22,16,SIM,FINALIZADA,***,NÃO,,0,1,NÃO,1/22/2023 0:00,1,2023,1/1/1900 16:45,2023-01
280,81259,81259,81259,81259,81259,INCIDENTE,-11.4230908,-58.7570212,JUÍNA,MT,BRASIL,SWJN,23,18,SIM,FINALIZADA,***,NÃO,,0,1,NÃO,1/23/2023 0:00,1,2023,1/1/1900 18:00,2023-01
281,81258,81258,81258,81258,81258,INCIDENTE,-16.92861111,-52.44416667,DOVERLÂNDIA,GO,BRASIL,***,20,10,SIM,FINALIZADA,***,NÃO,,0,1,NÃO,1/20/2023 0:00,1,2023,1/1/1900 10:45,2023-01
282,81257,81257,81257,81257,81257,ACIDENTE,-23.5697765,-46.0407456,BIRITIBA-MIRIM,SP,BRASIL,SDIH,21,17,SIM,ATIVA,A-009/CENIPA/2023,NÃO,,0,1,NÃO,1/21/2023 0:00,1,2023,1/1/1900 17:45,2023-01
283,81256,81256,81256,81256,81256,INCIDENTE,-23.50666667,-46.63388889,SÃO PAULO,SP,BRASIL,SBMT,21,19,SIM,FINALIZADA,***,NÃO,,0,1,NÃO,1/21/2023 0:00,1,2023,1/1/1900 19:33,2023-01
284,81254,81254,81254,81254,81254,INCIDENTE,-23.18166667,-46.94361111,JUNDIAÍ,SP,BRASIL,SBJD,19,11,SIM,FINALIZADA,***,NÃO,,0,1,NÃO,1/19/2023 0:00,1,2023,1/1/1900 11:28,2023-01
285,81253,81253,81253,81253,81253,ACIDENTE,-20.4477984,-53.7609001,RIBAS DO RIO PARDO,MS,BRASIL,***,17,22,SIM,FINALIZADA,***,NÃO,,0,1,NÃO,1/17/2023 0:00,1,2023,1/1/1900 22:10,2023-01
286,81251,81251,81251,81251,81251,INCIDENTE,-16.443473,-39.064251,PORTO SEGURO,BA,BRASIL,SBPS,22,18,SIM,FINALIZADA,***,NÃO,,0,1,NÃO,1/22/2023 0:00,1,2023,1/1/1900 18:15,2023-01
287,81250,81250,81250,81250,81250,INCIDENTE,-15.65,-56.1175,CUIABÁ,MT,BRASIL,SBCY,12,2,SIM,FINALIZADA,***,NÃO,,0,1,NÃO,1/12/2023 0:00,1,2023,1/1/1900 2:17,2023-01
288,81249,81249,81249,81249,81249,INCIDENTE,-8.0584933,-34.8848193,RECIFE,PE,BRASIL,SBRF,7,1,SIM,FINALIZADA,***,NÃO,,0,1,NÃO,1/7/2023 0:00,1,2023,1/1/1900 1:39,2023-01
289,81247,81247,81247,81247,81247,INCIDENTE,-23.62611111,-46.65638889,SÃO PAULO,SP,BRASIL,SBSP,8,9,SIM,FINALIZADA,***,NÃO,,0,1,NÃO,1/8/2023 0:00,1,2023,1/1/1900 9:15,2023-01
290,81246,81246,81246,81246,81246,ACIDENTE,-24.7272376,-48.1077914,CAJATI,SP,BRASIL,****,17,12,SIM,ATIVA,A-008/CENIPA/2023,NÃO,,0,1,NÃO,1/17/2023 0:00,1,2023,1/1/1900 12:15,2023-01
291,81245,81245,81245,81245,81245,ACIDENTE,-19.53111111,-46.51694444,IBIÁ,MG,BRASIL,****,17,19,SIM,ATIVA,A-007/CENIPA/2023,NÃO,,0,1,SIM,1/17/2023 0:00,1,2023,1/1/1900 19:20,2023-01
292,81244,81244,81244,81244,81244,ACIDENTE,3.711944444,-64.1625,AMAJARI,RR,BRASIL,SDRP,12,16,SIM,ATIVA,A-005/CENIPA/2023,NÃO,,0,1,NÃO,1/12/2023 0:00,1,2023,1/1/1900 16:40,2023-01
293,81243,81243,81243,81243,81243,ACIDENTE,2.939444444,-60.72944444,BOA VISTA,RR,BRASIL,***,11,10,SIM,ATIVA,A-004/CENIPA/2023,NÃO,,0,1,NÃO,1/11/2023 0:00,1,2023,1/1/1900 10:00,2023-01
294,81242,81242,81242,81242,81242,INCIDENTE,-22.38222222,-40.73194444,CAMPOS DOS GOYTACAZES,RJ,BRASIL,***,16,13,SIM,FINALIZADA,***,NÃO,,0,1,NÃO,1/16/2023 0:00,1,2023,1/1/1900 13:35,2023-01
295,81241,81241,81241,81241,81241,INCIDENTE,-17.40611111,-50.29416667,ACREÚNA,GO,BRASIL,****,14,17,SIM,FINALIZADA,***,NÃO,,0,1,NÃO,1/14/2023 0:00,1,2023,1/1/1900 17:30,2023-01
296,81240,81240,81240,81240,81240,INCIDENTE,-9.3817334,-40.4968875,PETROLINA,PE,BRASIL,SBPL,12,15,SIM,FINALIZADA,***,NÃO,,0,1,NÃO,1/12/2023 0:00,1,2023,1/1/1900 15:25,2023-01
297,81239,81239,81239,81239,81239,ACIDENTE,-21.9930206,-48.3917372,BOA ESPERANÇA DO SUL,SP,BRASIL,****,15,8,SIM,ATIVA,A-006/CENIPA/2023,NÃO,,0,1,NÃO,1/15/2023 0:00,1,2023,1/1/1900 8:50,2023-01
298,81234,81234,81234,81234,81234,INCIDENTE,-8.0584933,-34.8848193,RECIFE,PE,BRASIL,SBRF,11,23,SIM,FINALIZADA,***,NÃO,,0,1,NÃO,1/11/2023 0:00,1,2023,1/1/1900 23:20,2023-01
299,81233,81233,81233,81233,81233,INCIDENTE,-23.62611111,-46.65638889,SÃO PAULO,SP,BRASIL,SBSP,10,2,SIM,FINALIZADA,***,NÃO,,0,1,NÃO,1/10/2023 0:00,1,2023,1/1/1900 2:32,2023-01
300,81232,81232,81232,81232,81232,INCIDENTE,-25.40333333,-49.23361111,CURITIBA,PR,BRASIL,SBBI,10,16,SIM,FINALIZADA,***,NÃO,,0,1,NÃO,1/10/2023 0:00,1,2023,1/1/1900 16:15,2023-01
301,81230,81230,81230,81230,81230,INCIDENTE,-23.03888889,-45.51583333,TAUBATÉ,SP,BRASIL,SBTA,12,15,SIM,FINALIZADA,***,NÃO,,0,1,NÃO,1/12/2023 0:00,1,2023,1/1/1900 15:24,2023-01
302,81229,81229,81229,81229,81229,INCIDENTE,-23.50666667,-46.63388889,SÃO PAULO,SP,BRASIL,SBMT,12,20,SIM,FINALIZADA,***,NÃO,,0,1,NÃO,1/12/2023 0:00,1,2023,1/1/1900 20:00,2023-01
303,81228,81228,81228,81228,81228,INCIDENTE,-26.3044898,-48.8486726,JOINVILLE,SC,BRASIL,***,28,14,SIM,FINALIZADA,***,NÃO,,0,1,NÃO,12/28/2022 0:00,12,2022,1/1/1900 14:18,2022-12
304,81227,81227,81227,81227,81227,INCIDENTE,-15.65444444,-56.11694444,CUIABÁ,MT,BRASIL,SBCY,11,18,SIM,FINALIZADA,***,NÃO,,0,1,NÃO,1/11/2023 0:00,1,2023,1/1/1900 18:50,2023-01
305,81226,81226,81226,81226,81226,INCIDENTE,-16.6325,-49.22111111,GOIÂNIA,GO,BRASIL,SBGO,10,18,SIM,FINALIZADA,***,NÃO,,0,1,NÃO,1/10/2023 0:00,1,2023,1/1/1900 18:50,2023-01
306,81225,81225,81225,81225,81225,INCIDENTE,-27.5973002,-48.5496098,FLORIANÓPOLIS,SC,BRASIL,SBFL,9,23,SIM,FINALIZADA,***,NÃO,,0,1,NÃO,1/9/2023 0:00,1,2023,1/1/1900 23:15,2023-01
307,81224,81224,81224,81224,81224,INCIDENTE,-22.9110137,-43.2093727,RIO DE JANEIRO,RJ,BRASIL,SBRJ,7,15,SIM,FINALIZADA,***,NÃO,,0,1,NÃO,1/7/2023 0:00,1,2023,1/1/1900 15:38,2023-01
308,81223,81223,81223,81223,81223,INCIDENTE,-19.9225776,-43.9451356,BELO HORIZONTE,MG,BRASIL,SBBH,8,15,SIM,FINALIZADA,***,NÃO,,0,1,NÃO,1/8/2023 0:00,1,2023,1/1/1900 15:43,2023-01
309,81221,81221,81221,81221,81221,ACIDENTE,-3.923055556,-38.32083333,AQUIRAZ,CE,BRASIL,***,5,19,SIM,ATIVA,A-002/CENIPA/2023,NÃO,,0,1,NÃO,1/5/2023 0:00,1,2023,1/1/1900 19:30,2023-01
310,81220,81220,81220,81220,81220,ACIDENTE,-22.22055556,-52.12666667,MARABÁ PAULISTA,SP,BRASIL,SDNE,6,19,SIM,ATIVA,A-003/CENIPA/2023,NÃO,,0,1,NÃO,1/6/2023 0:00,1,2023,1/1/1900 19:20,2023-01
311,81219,81219,81219,81219,81219,INCIDENTE,-23.00694444,-47.13444444,CAMPINAS,SP,BRASIL,SBKP,19,20,SIM,FINALIZADA,***,NÃO,,0,1,NÃO,12/19/2022 0:00,12,2022,1/1/1900 20:21,2022-12
312,81218,81218,81218,81218,81218,INCIDENTE,-1.45056,-48.4682453,BELÉM,PA,BRASIL,SBBE,5,15,SIM,FINALIZADA,***,NÃO,,0,1,NÃO,1/5/2023 0:00,1,2023,1/1/1900 15:55,2023-01
313,81217,81217,81217,81217,81217,ACIDENTE,-28.241827,-48.6643444,IMBITUBA,SC,BRASIL,SSET,4,15,SIM,ATIVA,A-001/CENIPA/2023,NÃO,,0,1,SIM,1/4/2023 0:00,1,2023,1/1/1900 15:30,2023-01
314,81216,81216,81216,81216,81216,INCIDENTE,-18.88361111,-48.22527778,UBERLÂNDIA,MG,BRASIL,SBUL,30,18,SIM,FINALIZADA,***,NÃO,,0,1,NÃO,12/30/2022 0:00,12,2022,1/1/1900 18:40,2022-12
315,81215,81215,81215,81215,81215,INCIDENTE,-29.6860512,-53.8069214,SANTA MARIA,RS,BRASIL,SBSM,21,10,SIM,FINALIZADA,***,NÃO,,0,1,NÃO,12/21/2022 0:00,12,2022,1/1/1900 10:42,2022-12
316,81213,81213,81213,81213,81213,INCIDENTE,-7.803888889,-45.05611111,RIBEIRO GONÇALVES,PI,BRASIL,SBQE,2,20,SIM,FINALIZADA,***,NÃO,,0,1,NÃO,1/2/2023 0:00,1,2023,1/1/1900 20:15,2023-01
317,81212,81212,81212,81212,81212,INCIDENTE,-22.9110137,-43.2093727,RIO DE JANEIRO,RJ,BRASIL,SBRJ,1,22,SIM,FINALIZADA,***,NÃO,,0,1,NÃO,1/1/2023 0:00,1,2023,1/1/1900 22:15,2023-01
318,81211,81211,81211,81211,81211,INCIDENTE,-22.9110137,-43.2093727,RIO DE JANEIRO,RJ,BRASIL,SBGL,27,15,SIM,FINALIZADA,***,NÃO,,0,1,NÃO,12/27/2022 0:00,12,2022,1/1/1900 15:20,2022-12
319,81210,81210,81210,81210,81210,INCIDENTE,-19.62444444,-43.97194444,CONFINS,MG,BRASIL,SBCF,12,11,SIM,FINALIZADA,***,NÃO,,0,1,NÃO,12/12/2022 0:00,12,2022,1/1/1900 11:54,2022-12
320,81209,81209,81209,81209,81209,INCIDENTE,-16.6325,-49.22111111,GOIÂNIA,GO,BRASIL,SBGO,25,21,SIM,FINALIZADA,***,NÃO,,0,1,NÃO,12/25/2022 0:00,12,2022,1/1/1900 21:35,2022-12
321,81208,81208,81208,81208,81208,INCIDENTE GRAVE,-16.26166667,-47.96833333,LUZIÂNIA,GO,BRASIL,SWUZ,27,18,SIM,FINALIZADA,***,NÃO,,0,1,NÃO,12/27/2022 0:00,12,2022,1/1/1900 18:30,2022-12
322,81207,81207,81207,81207,81207,INCIDENTE,-9.459444444,-45.34833333,MONTE ALEGRE DO PIAUÍ,PI,BRASIL,***,27,17,SIM,FINALIZADA,***,NÃO,,0,1,NÃO,12/27/2022 0:00,12,2022,1/1/1900 17:40,2022-12
323,81206,81206,81206,81206,81206,INCIDENTE,-30.0324999,-51.2303767,PORTO ALEGRE,RS,BRASIL,SBPA,8,20,SIM,FINALIZADA,***,NÃO,,0,1,NÃO,12/8/2022 0:00,12,2022,1/1/1900 20:51,2022-12
324,81205,81205,81205,81205,81205,ACIDENTE,-13.01666667,-58.05916667,BRASNORTE,MT,BRASIL,***,22,10,SIM,ATIVA,A-147/CENIPA/2022,NÃO,,0,1,NÃO,12/22/2022 0:00,12,2022,1/1/1900 10:20,2022-12
325,81204,81204,81204,81204,81204,INCIDENTE,-16.63138889,-49.22194444,GOIÂNIA,GO,BRASIL,SBGO,21,13,SIM,FINALIZADA,***,NÃO,,0,1,NÃO,12/21/2022 0:00,12,2022,1/1/1900 13:20,2022-12
326,81203,81203,81203,81203,81203,INCIDENTE GRAVE,-2.586944444,-44.23611111,SÃO LUÍS,MA,BRASIL,SBSL,26,20,SIM,FINALIZADA,***,NÃO,,0,1,NÃO,12/26/2022 0:00,12,2022,1/1/1900 20:10,2022-12
327,81201,81201,81201,81201,81201,ACIDENTE,-29.8838059,-54.8273443,CACEQUI,RS,BRASIL,APUA,23,13,SIM,ATIVA,A-148/CENIPA/2022,NÃO,,0,1,SIM,12/23/2022 0:00,12,2022,1/1/1900 13:50,2022-12
328,81200,81200,81200,81200,81200,INCIDENTE,-23.50666667,-46.63388889,SÃO PAULO,SP,BRASIL,SBMT,22,14,SIM,FINALIZADA,***,NÃO,,0,1,NÃO,12/22/2022 0:00,12,2022,1/1/1900 14:10,2022-12
329,81199,81199,81199,81199,81199,INCIDENTE GRAVE,-29.9976311,-51.3063965,ELDORADO DO SUL,RS,BRASIL,****,22,12,SIM,FINALIZADA,***,NÃO,,0,1,NÃO,12/22/2022 0:00,12,2022,1/1/1900 12:00,2022-12
330,81198,81198,81198,81198,81198,ACIDENTE,-18.55166667,-50.41777778,QUIRINÓPOLIS,GO,BRASIL,***,21,14,SIM,ATIVA,A-146/CENIPA/2022,NÃO,,0,1,SIM,12/21/2022 0:00,12,2022,1/1/1900 14:20,2022-12
331,81197,81197,81197,81197,81197,INCIDENTE GRAVE,-11.0414544,-45.1903983,FORMOSA DO RIO PRETO,BA,BRASIL,****,19,12,SIM,FINALIZADA,***,NÃO,,0,1,NÃO,12/19/2022 0:00,12,2022,1/1/1900 12:00,2022-12
332,81196,81196,81196,81196,81196,INCIDENTE,-20.4640173,-54.6162947,CAMPO GRANDE,MS,BRASIL,SSIE,21,17,SIM,FINALIZADA,***,NÃO,,0,1,SIM,12/21/2022 0:00,12,2022,1/1/1900 17:00,2022-12
333,81195,81195,81195,81195,81195,ACIDENTE,-18.21,-49.72138889,BOM JESUS DE GOIÁS,GO,BRASIL,***,19,9,SIM,ATIVA,A-145/CENIPA/2022,NÃO,,0,1,NÃO,12/19/2022 0:00,12,2022,1/1/1900 9:50,2022-12
334,81194,81194,81194,81194,81194,INCIDENTE GRAVE,-11.61916667,-50.68416667,SÃO FÉLIX DO ARAGUAIA,MT,BRASIL,SWFX,18,20,SIM,FINALIZADA,***,NÃO,,0,1,SIM,12/18/2022 0:00,12,2022,1/1/1900 20:10,2022-12
335,81191,81191,81191,81191,81191,ACIDENTE,-19.9512094,-44.2273507,NÃO IDENTIFICADA,MT,BRASIL,**NI,8,20,NÃO,FINALIZADA,***,NÃO,,0,1,NÃO,12/8/2022 0:00,12,2022,1/1/1900 20:30,2022-12
336,81190,81190,81190,81190,81190,INCIDENTE,-5.060555556,-42.82444444,TERESINA,PI,BRASIL,SBTE,9,14,SIM,FINALIZADA,***,NÃO,,0,1,NÃO,12/9/2022 0:00,12,2022,1/1/1900 14:15,2022-12
337,81189,81189,81189,81189,81189,INCIDENTE,-23.54555556,-46.46777778,SÃO PAULO,SP,BRASIL,***,17,15,SIM,FINALIZADA,***,NÃO,,0,1,NÃO,12/17/2022 0:00,12,2022,1/1/1900 15:25,2022-12
338,81188,81188,81188,81188,81188,INCIDENTE,-12.21666667,-55.36666667,VERA,MT,BRASIL,**NI,17,14,SIM,FINALIZADA,***,NÃO,,0,1,NÃO,12/17/2022 0:00,12,2022,1/1/1900 14:45,2022-12
339,81187,81187,81187,81187,81187,INCIDENTE,-23.50666667,-46.63388889,SÃO PAULO,SP,BRASIL,SBMT,15,22,SIM,FINALIZADA,***,NÃO,,0,1,NÃO,12/15/2022 0:00,12,2022,1/1/1900 22:49,2022-12
340,81186,81186,81186,81186,81186,INCIDENTE,-20.4640173,-54.6162947,CAMPO GRANDE,MS,BRASIL,SSIE,15,19,SIM,FINALIZADA,***,NÃO,,0,1,NÃO,12/15/2022 0:00,12,2022,1/1/1900 19:30,2022-12
341,81185,81185,81185,81185,81185,ACIDENTE,-22.9110137,-43.2093727,RIO DE JANEIRO,RJ,BRASIL,***,14,13,NÃO,ATIVA,A-144/CENIPA/2022,NÃO,,0,1,NÃO,12/14/2022 0:00,12,2022,1/1/1900 13:55,2022-12
342,81184,81184,81184,81184,81184,INCIDENTE,-22.28283055,-41.96490907,MACAÉ,RJ,BRASIL,SBME,12,18,SIM,FINALIZADA,***,NÃO,,0,1,NÃO,12/12/2022 0:00,12,2022,1/1/1900 18:38,2022-12
343,81182,81182,81182,81182,81182,INCIDENTE,-9.868333333,-67.89805556,RIO BRANCO,AC,BRASIL,SBRB,9,12,SIM,FINALIZADA,***,NÃO,,0,1,NÃO,12/9/2022 0:00,12,2022,1/1/1900 12:15,2022-12
344,81181,81181,81181,81181,81181,INCIDENTE,-25.40583333,-49.23111111,CURITIBA,PR,BRASIL,SBBI,13,18,SIM,FINALIZADA,***,NÃO,,0,1,SIM,12/13/2022 0:00,12,2022,1/1/1900 18:45,2022-12
345,81180,81180,81180,81180,81180,INCIDENTE,-23.18166667,-46.94361111,JUNDIAÍ,SP,BRASIL,SBJD,3,18,SIM,FINALIZADA,***,NÃO,,0,1,NÃO,12/3/2022 0:00,12,2022,1/1/1900 18:50,2022-12
346,81179,81179,81179,81179,81179,INCIDENTE,-29.1685045,-51.1796385,CAXIAS DO SUL,RS,BRASIL,***,28,13,SIM,FINALIZADA,***,NÃO,,0,1,NÃO,11/28/2022 0:00,11,2022,1/1/1900 13:30,2022-11
347,81178,81178,81178,81178,81178,INCIDENTE GRAVE,-27.5973002,-48.5496098,FLORIANÓPOLIS,SC,BRASIL,SBFL,12,17,SIM,FINALIZADA,***,NÃO,,0,1,SIM,12/12/2022 0:00,12,2022,1/1/1900 17:00,2022-12
348,81177,81177,81177,81177,81177,ACIDENTE,-18.407778,-49.957222,INACIOLÂNDIA,GO,BRASIL,***,8,21,SIM,ATIVA,A-142/CENIPA/2022,NÃO,,0,1,NÃO,12/8/2022 0:00,12,2022,1/1/1900 21:30,2022-12
349,81176,81176,81176,81176,81176,INCIDENTE,-23.099204,-45.707645,CAÇAPAVA,SP,BRASIL,***,11,18,SIM,FINALIZADA,***,NÃO,,0,1,NÃO,12/11/2022 0:00,12,2022,1/1/1900 18:30,2022-12
350,81175,81175,81175,81175,81175,INCIDENTE,-23.18166667,-46.94361111,JUNDIAÍ,SP,BRASIL,SBJD,9,15,SIM,FINALIZADA,***,NÃO,,0,1,NÃO,12/9/2022 0:00,12,2022,1/1/1900 15:00,2022-12
351,81174,81174,81174,81174,81174,INCIDENTE,-19.9225776,-43.9451356,BELO HORIZONTE,MG,BRASIL,SBBH,6,20,SIM,FINALIZADA,***,NÃO,,0,1,NÃO,12/6/2022 0:00,12,2022,1/1/1900 20:45,2022-12
352,81173,81173,81173,81173,81173,INCIDENTE,-23.425269,-51.9382078,MARINGÁ,PR,BRASIL,***,2,14,SIM,FINALIZADA,***,NÃO,,0,1,NÃO,12/2/2022 0:00,12,2022,1/1/1900 14:00,2022-12
353,81172,81172,81172,81172,81172,INCIDENTE GRAVE,-27.5973002,-48.5496098,FLORIANÓPOLIS,SC,BRASIL,SBFL,9,10,SIM,ATIVA,IG-143/CENIPA/2022,NÃO,,0,1,NÃO,12/9/2022 0:00,12,2022,1/1/1900 10:20,2022-12
354,81171,81171,81171,81171,81171,ACIDENTE,-22.9520235,-46.5418586,BRAGANÇA PAULISTA,SP,BRASIL,SDVH,7,19,SIM,ATIVA,A-140/CENIPA/2022,NÃO,,0,1,SIM,12/7/2022 0:00,12,2022,1/1/1900 19:30,2022-12
355,81170,81170,81170,81170,81170,INCIDENTE,-23.43555556,-46.47305556,GUARULHOS,SP,BRASIL,SBGR,9,18,SIM,FINALIZADA,***,NÃO,,0,1,NÃO,12/9/2022 0:00,12,2022,1/1/1900 18:20,2022-12
356,81169,81169,81169,81169,81169,ACIDENTE,-16.26194444,-47.96638889,LUZIÂNIA,GO,BRASIL,SWUZ,7,14,SIM,FINALIZADA,A-141/CENIPA/2022,SIM,5/31/2023,0,1,SIM,12/7/2022 0:00,12,2022,1/1/1900 14:50,2022-12
357,81168,81168,81168,81168,81168,INCIDENTE,-1.45056,-48.4682453,BELÉM,PA,BRASIL,SBBE,3,10,SIM,FINALIZADA,***,NÃO,,0,1,NÃO,12/3/2022 0:00,12,2022,1/1/1900 10:00,2022-12
358,81167,81167,81167,81167,81167,INCIDENTE,-18.88361111,-48.22527778,UBERLÂNDIA,MG,BRASIL,SBUL,6,19,SIM,FINALIZADA,***,NÃO,,0,1,NÃO,12/6/2022 0:00,12,2022,1/1/1900 19:35,2022-12
359,81166,81166,81166,81166,81166,INCIDENTE,-3.041111111,-60.05055556,MANAUS,AM,BRASIL,SBEG,26,6,SIM,FINALIZADA,***,NÃO,,0,1,NÃO,11/26/2022 0:00,11,2022,1/1/1900 6:00,2022-11
360,81165,81165,81165,81165,81165,INCIDENTE,-19.62444444,-43.97194444,CONFINS,MG,BRASIL,SBCF,3,6,SIM,FINALIZADA,***,NÃO,,0,1,NÃO,12/3/2022 0:00,12,2022,1/1/1900 6:41,2022-12
361,81163,81163,81163,81163,81163,INCIDENTE,-20.473969,-55.7821375,AQUIDAUANA,MS,BRASIL,SSHA,5,14,SIM,FINALIZADA,***,NÃO,,0,1,NÃO,12/5/2022 0:00,12,2022,1/1/1900 14:10,2022-12
362,81162,81162,81162,81162,81162,ACIDENTE,-25.0891685,-50.1601812,PONTA GROSSA,PR,BRASIL,SBPG,5,19,SIM,ATIVA,A-139/CENIPA/2022,NÃO,,0,1,NÃO,12/5/2022 0:00,12,2022,1/1/1900 19:50,2022-12
363,81161,81161,81161,81161,81161,ACIDENTE,-3.1316333,-59.9825041,MANAUS,AM,BRASIL,SWFN,4,15,SIM,ATIVA,A-137/CENIPA/2022,NÃO,,0,1,SIM,12/4/2022 0:00,12,2022,1/1/1900 15:47,2022-12
364,81160,81160,81160,81160,81160,INCIDENTE,-22.28283055,-41.96490907,MACAÉ,RJ,BRASIL,***,2,14,SIM,FINALIZADA,***,NÃO,,0,1,NÃO,12/2/2022 0:00,12,2022,1/1/1900 14:38,2022-12
365,81159,81159,81159,81159,81159,ACIDENTE,-6.058888889,-35.19777778,NÍSIA FLORESTA,RN,BRASIL,***,4,14,SIM,ATIVA,A-138/CENIPA/2022,NÃO,,0,1,NÃO,12/4/2022 0:00,12,2022,1/1/1900 14:20,2022-12
366,81158,81158,81158,81158,81158,INCIDENTE,-19.62444444,-43.97194444,CONFINS,MG,BRASIL,SBCF,2,12,SIM,FINALIZADA,***,NÃO,,0,1,NÃO,12/2/2022 0:00,12,2022,1/1/1900 12:00,2022-12
367,81157,81157,81157,81157,81157,INCIDENTE,-15.65,-56.1175,CUIABÁ,MT,BRASIL,SBCY,3,18,SIM,FINALIZADA,***,NÃO,,0,1,NÃO,12/3/2022 0:00,12,2022,1/1/1900 18:44,2022-12
368,81156,81156,81156,81156,81156,INCIDENTE,-10.3333333,-53.2,BRASÍLIA,DF,BRASIL,SBBR,17,15,SIM,FINALIZADA,***,NÃO,,0,2,NÃO,11/17/2022 0:00,11,2022,1/1/1900 15:15,2022-11
369,81155,81155,81155,81155,81155,INCIDENTE,-14.86,-53.5,SANTO ANTÔNIO DO LESTE,MT,BRASIL,****,8,17,SIM,FINALIZADA,***,NÃO,,0,1,NÃO,11/8/2022 0:00,11,2022,1/1/1900 17:25,2022-11
370,81154,81154,81154,81154,81154,INCIDENTE,-8.0584933,-34.8848193,RECIFE,PE,BRASIL,SBRF,29,23,SIM,FINALIZADA,***,NÃO,,0,1,NÃO,11/29/2022 0:00,11,2022,1/1/1900 23:24,2022-11
371,81153,81153,81153,81153,81153,ACIDENTE,-13.2475,-53.087222,GAÚCHA DO NORTE,MT,BRASIL,***,29,12,SIM,ATIVA,A-136/CENIPA/2022,NÃO,,0,1,NÃO,11/29/2022 0:00,11,2022,1/1/1900 12:35,2022-11
372,81152,81152,81152,81152,81152,INCIDENTE,-14.8567487,-40.8414804,VITÓRIA DA CONQUISTA,BA,BRASIL,SBVC,30,22,SIM,FINALIZADA,***,NÃO,,0,1,NÃO,11/30/2022 0:00,11,2022,1/1/1900 22:30,2022-11
373,81151,81151,81151,81151,81151,INCIDENTE,-19.70222222,-43.98666667,SÃO JOSÉ DA LAPA,MG,BRASIL,****,29,14,SIM,FINALIZADA,***,NÃO,,0,1,NÃO,11/29/2022 0:00,11,2022,1/1/1900 14:55,2022-11
374,81150,81150,81150,81150,81150,INCIDENTE,-22.92083333,-42.07138889,CABO FRIO,RJ,BRASIL,SBCB,25,19,SIM,FINALIZADA,***,NÃO,,0,1,NÃO,11/25/2022 0:00,11,2022,1/1/1900 19:30,2022-11
375,81149,81149,81149,81149,81149,INCIDENTE GRAVE,-27.39111111,-52.82194444,NONOAI,RS,BRASIL,***,25,13,SIM,FINALIZADA,***,NÃO,,0,1,NÃO,11/25/2022 0:00,11,2022,1/1/1900 13:15,2022-11
376,81148,81148,81148,81148,81148,INCIDENTE,-23.62611111,-46.65638889,SÃO PAULO,SP,BRASIL,SBSP,26,13,SIM,FINALIZADA,***,NÃO,,0,1,NÃO,11/26/2022 0:00,11,2022,1/1/1900 13:00,2022-11
377,81147,81147,81147,81147,81147,INCIDENTE,-22.9110137,-43.2093727,RIO DE JANEIRO,RJ,BRASIL,SBRJ,25,9,SIM,FINALIZADA,***,NÃO,,0,1,NÃO,11/25/2022 0:00,11,2022,1/1/1900 9:15,2022-11
378,81146,81146,81146,81146,81146,ACIDENTE,-3.038333333,-60.04916667,MANAUS,AM,BRASIL,***,28,2,SIM,ATIVA,A-135/CENIPA/2022,NÃO,,0,1,NÃO,11/28/2022 0:00,11,2022,1/1/1900 2:00,2022-11
379,81145,81145,81145,81145,81145,ACIDENTE,-10.83833333,-48.30138889,PORTO NACIONAL,TO,BRASIL,***,25,17,SIM,ATIVA,A-134/CENIPA/2022,NÃO,,0,1,NÃO,11/25/2022 0:00,11,2022,1/1/1900 17:45,2022-11
380,81144,81144,81144,81144,81144,INCIDENTE GRAVE,-12.357196,-44.976881,SÃO DESIDÉRIO,BA,BRASIL,SDRQ,22,13,SIM,FINALIZADA,***,NÃO,,0,1,SIM,11/22/2022 0:00,11,2022,1/1/1900 13:10,2022-11
381,81143,81143,81143,81143,81143,INCIDENTE,-23.18166667,-46.94361111,JUNDIAÍ,SP,BRASIL,SBJD,23,19,SIM,FINALIZADA,***,NÃO,,0,1,NÃO,11/23/2022 0:00,11,2022,1/1/1900 19:10,2022-11
382,81142,81142,81142,81142,81142,INCIDENTE,-3.1316333,-59.9825041,MANAUS,AM,BRASIL,SBEG,24,23,SIM,FINALIZADA,***,NÃO,,0,1,NÃO,10/24/2022 0:00,10,2022,1/1/1900 23:26,2022-10
383,81141,81141,81141,81141,81141,INCIDENTE,-22.9110137,-43.2093727,RIO DE JANEIRO,RJ,BRASIL,SBJR,20,12,SIM,FINALIZADA,***,NÃO,,0,1,NÃO,11/20/2022 0:00,11,2022,1/1/1900 12:01,2022-11
384,81140,81140,81140,81140,81140,ACIDENTE,-15.770833,-58.331111,GLÓRIA D'OESTE,MT,BRASIL,***,19,21,SIM,ATIVA,A-132/CENIPA/2022,NÃO,,0,1,NÃO,11/19/2022 0:00,11,2022,1/1/1900 21:30,2022-11
385,81139,81139,81139,81139,81139,ACIDENTE,-12.3198,-55.5041,VERA,MT,BRASIL,***,18,18,SIM,ATIVA,A-133/CENIPA/2022,NÃO,,0,1,NÃO,11/18/2022 0:00,11,2022,1/1/1900 18:00,2022-11
386,81138,81138,81138,81138,81138,INCIDENTE GRAVE,-28.7487602,-49.4737661,FORQUILHINHA,SC,BRASIL,SSIM,17,15,SIM,ATIVA,IG-130/CENIPA/2022,NÃO,,0,1,NÃO,11/17/2022 0:00,11,2022,1/1/1900 15:15,2022-11
387,81136,81136,81136,81136,81136,INCIDENTE,-17.5787,-52.5425,MINEIROS,GO,BRASIL,SWME,30,16,SIM,FINALIZADA,***,NÃO,,0,1,NÃO,10/30/2022 0:00,10,2022,1/1/1900 16:15,2022-10
388,81135,81135,81135,81135,81135,ACIDENTE,-26.8898813,-48.6495828,NAVEGANTES,SC,BRASIL,***,17,18,SIM,ATIVA,A-131/CENIPA/2022,NÃO,,0,1,NÃO,11/17/2022 0:00,11,2022,1/1/1900 18:10,2022-11
389,81134,81134,81134,81134,81134,INCIDENTE,-23.00694444,-47.13444444,CAMPINAS,SP,BRASIL,SBRF,14,11,SIM,FINALIZADA,***,NÃO,,0,1,NÃO,11/14/2022 0:00,11,2022,1/1/1900 11:21,2022-11
390,81133,81133,81133,81133,81133,INCIDENTE,-19.64111111,-43.97194444,CONFINS,MG,BRASIL,SBCF,12,16,SIM,FINALIZADA,***,NÃO,,0,1,NÃO,11/12/2022 0:00,11,2022,1/1/1900 16:35,2022-11
391,81131,81131,81131,81131,81131,INCIDENTE,-22.9110137,-43.2093727,RIO DE JANEIRO,RJ,BRASIL,SBGL,16,17,SIM,FINALIZADA,***,NÃO,,0,2,NÃO,11/16/2022 0:00,11,2022,1/1/1900 17:30,2022-11
392,81130,81130,81130,81130,81130,ACIDENTE,-17.015833,-54.115,ITIQUIRA,MT,BRASIL,***,4,18,SIM,ATIVA,A-123/CENIPA/2022,NÃO,,0,1,NÃO,11/4/2022 0:00,11,2022,1/1/1900 18:30,2022-11
393,81128,81128,81128,81128,81128,INCIDENTE,-16.62972222,-49.22666667,GOIÂNIA,GO,BRASIL,SBGO,14,21,SIM,FINALIZADA,***,NÃO,,0,1,NÃO,11/14/2022 0:00,11,2022,1/1/1900 21:01,2022-11
394,81127,81127,81127,81127,81127,INCIDENTE,-29.62111111,-51.64944444,PAVERAMA,RS,BRASIL,***,17,12,SIM,FINALIZADA,***,NÃO,,0,1,NÃO,11/17/2022 0:00,11,2022,1/1/1900 12:28,2022-11
395,81126,81126,81126,81126,81126,ACIDENTE,-33.5198333,-53.3693967,SANTA VITÓRIA DO PALMAR,RS,BRASIL,APUA,16,19,SIM,ATIVA,A-129/CENIPA/2022,NÃO,,0,1,SIM,11/16/2022 0:00,11,2022,1/1/1900 19:00,2022-11
396,81125,81125,81125,81125,81125,INCIDENTE,-23.43555556,-46.47305556,GUARULHOS,SP,BRASIL,SBGR,13,21,SIM,FINALIZADA,***,NÃO,,0,1,NÃO,11/13/2022 0:00,11,2022,1/1/1900 21:10,2022-11
397,81124,81124,81124,81124,81124,ACIDENTE,-9.390277778,-51.72527778,SÃO FÉLIX DO XINGU,PA,BRASIL,***,15,18,SIM,ATIVA,A-128/CENIPA/2022,NÃO,,0,1,SIM,11/15/2022 0:00,11,2022,1/1/1900 18:30,2022-11
398,81123,81123,81123,81123,81123,INCIDENTE,-8.0584933,-34.8848193,RECIFE,PE,BRASIL,SBRF,8,18,SIM,FINALIZADA,***,NÃO,,0,1,NÃO,11/8/2022 0:00,11,2022,1/1/1900 18:35,2022-11
399,81122,81122,81122,81122,81122,INCIDENTE,-8.0584933,-34.8848193,RECIFE,PE,BRASIL,SBRF,8,12,SIM,FINALIZADA,***,NÃO,,0,1,NÃO,11/8/2022 0:00,11,2022,1/1/1900 12:17,2022-11
400,81121,81121,81121,81121,81121,INCIDENTE,-23.43555556,-46.47305556,GUARULHOS,SP,BRASIL,SBGR,20,12,SIM,FINALIZADA,***,NÃO,,0,1,NÃO,10/20/2022 0:00,10,2022,1/1/1900 12:23,2022-10
401,81120,81120,81120,81120,81120,ACIDENTE,-7.219166667,-39.26944444,JUAZEIRO DO NORTE,CE,BRASIL,SBJU,11,14,SIM,ATIVA,A-127/CENIPA/2022,NÃO,,0,1,NÃO,11/11/2022 0:00,11,2022,1/1/1900 14:30,2022-11
402,81119,81119,81119,81119,81119,INCIDENTE,-23.43555556,-46.47305556,GUARULHOS,SP,BRASIL,SBGR,11,18,SIM,FINALIZADA,***,NÃO,,0,1,NÃO,11/11/2022 0:00,11,2022,1/1/1900 18:30,2022-11
403,81118,81118,81118,81118,81118,INCIDENTE,-12.9822499,-38.4812772,SALVADOR,BA,BRASIL,SBSV,9,14,SIM,FINALIZADA,***,NÃO,,0,1,NÃO,11/9/2022 0:00,11,2022,1/1/1900 14:15,2022-11
404,81117,81117,81117,81117,81117,INCIDENTE,-23.00694444,-47.13444444,CAMPINAS,SP,BRASIL,SBKP,7,18,SIM,FINALIZADA,***,NÃO,,0,1,NÃO,11/7/2022 0:00,11,2022,1/1/1900 18:30,2022-11
405,81116,81116,81116,81116,81116,INCIDENTE,-20.25805556,-40.28638889,VITÓRIA,ES,BRASIL,SBVT,24,9,SIM,FINALIZADA,***,NÃO,,0,2,NÃO,10/24/2022 0:00,10,2022,1/1/1900 9:00,2022-10
406,81115,81115,81115,81115,81115,ACIDENTE,-3.1316333,-59.9825041,MANAUS,AM,BRASIL,****,8,18,SIM,FINALIZADA,***,NÃO,,0,1,NÃO,11/8/2022 0:00,11,2022,1/1/1900 18:00,2022-11
407,81114,81114,81114,81114,81114,ACIDENTE,-16.26194444,-47.96944444,LUZIÂNIA,GO,BRASIL,SWUZ,6,11,SIM,ATIVA,A-126/CENIPA/2022,NÃO,,0,1,NÃO,11/6/2022 0:00,11,2022,1/1/1900 11:30,2022-11
408,81113,81113,81113,81113,81113,ACIDENTE,-12.04027778,-55.50833333,SINOP,MT,BRASIL,***,5,20,SIM,ATIVA,A-124/CENIPA/2022,NÃO,,0,1,NÃO,11/5/2022 0:00,11,2022,1/1/1900 20:10,2022-11
409,81109,81109,81109,81109,81109,INCIDENTE,-14.223066,-42.779943,GUANAMBI,BA,BRASIL,SNGI,5,14,SIM,FINALIZADA,***,NÃO,,0,1,NÃO,11/5/2022 0:00,11,2022,1/1/1900 14:07,2022-11
410,81108,81108,81108,81108,81108,INCIDENTE GRAVE,-3.072777778,-60.02111111,MANAUS,AM,BRASIL,SWFN,5,14,SIM,ATIVA,IG-125/CENIPA/2022,NÃO,,0,1,SIM,11/5/2022 0:00,11,2022,1/1/1900 14:00,2022-11
411,81106,81106,81106,81106,81106,INCIDENTE,-9.8698547,-56.0834993,ALTA FLORESTA,MT,BRASIL,SBAT,31,15,SIM,FINALIZADA,***,NÃO,,0,1,NÃO,10/31/2022 0:00,10,2022,1/1/1900 15:45,2022-10
412,81095,81095,81095,81095,81095,INCIDENTE,-22.48722222,-40.09638889,CAMPOS DOS GOYTACAZES,RJ,BRASIL,9PEB,5,10,SIM,FINALIZADA,***,NÃO,,0,1,NÃO,11/5/2022 0:00,11,2022,1/1/1900 10:30,2022-11
413,81094,81094,81094,81094,81094,INCIDENTE,-4.883055556,-65.35583333,COARI,AM,BRASIL,SBUY,1,11,SIM,FINALIZADA,***,NÃO,,0,1,NÃO,11/1/2022 0:00,11,2022,1/1/1900 11:00,2022-11
414,81093,81093,81093,81093,81093,INCIDENTE,-20.8125851,-49.3804212,SÃO JOSÉ DO RIO PRETO,SP,BRASIL,SBSR,29,21,SIM,FINALIZADA,***,NÃO,,0,1,NÃO,10/29/2022 0:00,10,2022,1/1/1900 21:26,2022-10
415,81092,81092,81092,81092,81092,INCIDENTE,-3.775833333,-38.53222222,FORTALEZA,CE,BRASIL,SBFZ,29,5,SIM,FINALIZADA,***,NÃO,,0,1,NÃO,10/29/2022 0:00,10,2022,1/1/1900 5:33,2022-10
416,81091,81091,81091,81091,81091,INCIDENTE,-1.45056,-48.4682453,BELÉM,PA,BRASIL,SBBE,1,14,SIM,FINALIZADA,***,NÃO,,0,1,NÃO,11/1/2022 0:00,11,2022,1/1/1900 14:25,2022-11
417,81090,81090,81090,81090,81090,INCIDENTE,-22.9110137,-43.2093727,RIO DE JANEIRO,RJ,BRASIL,SBGL,30,8,SIM,FINALIZADA,***,NÃO,,0,1,NÃO,10/30/2022 0:00,10,2022,1/1/1900 8:23,2022-10
418,81089,81089,81089,81089,81089,INCIDENTE,-23.00694444,-47.13444444,CAMPINAS,SP,BRASIL,SBCF,27,9,SIM,FINALIZADA,***,NÃO,,0,1,NÃO,10/27/2022 0:00,10,2022,1/1/1900 9:09,2022-10
419,81088,81088,81088,81088,81088,INCIDENTE,-19.62444444,-43.97194444,CONFINS,MG,BRASIL,SBCF,17,19,SIM,FINALIZADA,***,NÃO,,0,1,NÃO,10/17/2022 0:00,10,2022,1/1/1900 19:55,2022-10
420,81087,81087,81087,81087,81087,INCIDENTE,-2.424722222,-54.78583333,SANTARÉM,PA,BRASIL,SBSN,25,22,SIM,FINALIZADA,***,NÃO,,0,1,NÃO,10/25/2022 0:00,10,2022,1/1/1900 22:44,2022-10
421,81086,81086,81086,81086,81086,ACIDENTE,-12.88472222,-56.05833333,LUCAS DO RIO VERDE,MT,BRASIL,***,29,17,SIM,FINALIZADA,A-121/CENIPA/2022,SIM,5/31/2023,0,1,SIM,10/29/2022 0:00,10,2022,1/1/1900 17:45,2022-10
422,81085,81085,81085,81085,81085,ACIDENTE,-7.844444444,-34.89138889,IGARASSU,PE,BRASIL,SIFC,29,16,SIM,ATIVA,A-122/CENIPA/2022,NÃO,,0,1,NÃO,10/29/2022 0:00,10,2022,1/1/1900 16:00,2022-10
423,81084,81084,81084,81084,81084,INCIDENTE,-16.62555556,-49.34944444,GOIÂNIA,GO,BRASIL,SBNV,30,17,SIM,FINALIZADA,***,NÃO,,0,1,NÃO,10/30/2022 0:00,10,2022,1/1/1900 17:08,2022-10
424,81083,81083,81083,81083,81083,INCIDENTE,-23.3112878,-51.1595023,LONDRINA,PR,BRASIL,SBLO,19,12,SIM,FINALIZADA,***,NÃO,,0,1,NÃO,10/19/2022 0:00,10,2022,1/1/1900 12:38,2022-10
425,81082,81082,81082,81082,81082,INCIDENTE GRAVE,-21.7318163,-41.3289071,SÃO JOSÉ DOS CAMPOS,SP,BRASIL,SBSJ,26,12,SIM,ATIVA,IG-120/CENIPA/2022,NÃO,,0,2,NÃO,10/26/2022 0:00,10,2022,1/1/1900 12:10,2022-10
426,81081,81081,81081,81081,81081,INCIDENTE,-7.219166667,-39.26944444,JUAZEIRO DO NORTE,CE,BRASIL,SBJU,20,21,SIM,FINALIZADA,***,NÃO,,0,1,NÃO,10/20/2022 0:00,10,2022,1/1/1900 21:05,2022-10
427,81079,81079,81079,81079,81079,ACIDENTE,-22.9110137,-43.2093727,RIO DE JANEIRO,RJ,BRASIL,****,22,17,SIM,ATIVA,A-119/CENIPA/2022,NÃO,,0,1,NÃO,10/22/2022 0:00,10,2022,1/1/1900 17:20,2022-10
428,81077,81077,81077,81077,81077,INCIDENTE,-16.6325,-49.22111111,GOIÂNIA,GO,BRASIL,SBGO,21,16,SIM,FINALIZADA,***,NÃO,,0,1,NÃO,10/21/2022 0:00,10,2022,1/1/1900 16:39,2022-10
429,81076,81076,81076,81076,81076,INCIDENTE,-19.62444444,-43.97194444,CONFINS,MG,BRASIL,SBCF,17,9,SIM,FINALIZADA,***,NÃO,,0,1,NÃO,10/17/2022 0:00,10,2022,1/1/1900 9:41,2022-10
430,81075,81075,81075,81075,81075,INCIDENTE,-23.43555556,-46.47305556,GUARULHOS,SP,BRASIL,SBGR,21,19,SIM,FINALIZADA,***,NÃO,,0,1,NÃO,10/21/2022 0:00,10,2022,1/1/1900 19:48,2022-10
431,81074,81074,81074,81074,81074,INCIDENTE,-23.00694444,-47.13444444,CAMPINAS,SP,BRASIL,SBKP,14,1,SIM,FINALIZADA,***,NÃO,,0,1,NÃO,10/14/2022 0:00,10,2022,1/1/1900 1:41,2022-10
432,81073,81073,81073,81073,81073,INCIDENTE,-8.0584933,-34.8848193,RECIFE,PE,BRASIL,SBRF,16,13,SIM,FINALIZADA,***,NÃO,,0,1,NÃO,10/16/2022 0:00,10,2022,1/1/1900 13:24,2022-10
433,81072,81072,81072,81072,81072,INCIDENTE,-15.65,-56.1175,VÁRZEA GRANDE,MT,BRASIL,SBCY,14,1,SIM,FINALIZADA,***,NÃO,,0,1,NÃO,10/14/2022 0:00,10,2022,1/1/1900 1:58,2022-10
434,81071,81071,81071,81071,81071,INCIDENTE,-25.53166667,-49.17611111,CURITIBA,PR,BRASIL,SBCT,6,21,SIM,FINALIZADA,***,NÃO,,0,1,NÃO,10/6/2022 0:00,10,2022,1/1/1900 21:19,2022-10
435,81070,81070,81070,81070,81070,INCIDENTE,-1.45056,-48.4682453,BELÉM,PA,BRASIL,SBBE,30,18,SIM,FINALIZADA,***,NÃO,,0,1,NÃO,9/30/2022 0:00,9,2022,1/1/1900 18:48,2022-09
436,81069,81069,81069,81069,81069,ACIDENTE,-23.63972222,-46.66083333,SÃO PAULO,SP,BRASIL,***,19,13,SIM,ATIVA,A-117/CENIPA/2022,NÃO,,0,1,NÃO,10/19/2022 0:00,10,2022,1/1/1900 13:50,2022-10
437,81068,81068,81068,81068,81068,INCIDENTE,-23.62611111,-46.65638889,SÃO PAULO,SP,BRASIL,SBSP,19,11,SIM,FINALIZADA,***,NÃO,,0,1,NÃO,10/19/2022 0:00,10,2022,1/1/1900 11:07,2022-10
438,81066,81066,81066,81066,81066,ACIDENTE,-20.51916667,-48.04666667,IPUÃ,SP,BRASIL,****,19,9,SIM,ATIVA,A-118/CENIPA/2022,NÃO,,0,1,NÃO,10/19/2022 0:00,10,2022,1/1/1900 9:25,2022-10
439,81065,81065,81065,81065,81065,INCIDENTE,-22.85916667,-47.10805556,CAMPINAS,SP,BRASIL,SDAM,16,12,SIM,FINALIZADA,***,NÃO,,0,1,NÃO,10/16/2022 0:00,10,2022,1/1/1900 12:55,2022-10
440,81064,81064,81064,81064,81064,ACIDENTE,-22.5286917,-55.723426,PONTA PORÃ,MS,BRASIL,***,16,10,SIM,ATIVA,A-116/CENIPA/2022,NÃO,,0,1,NÃO,10/16/2022 0:00,10,2022,1/1/1900 10:20,2022-10
441,81063,81063,81063,81063,81063,INCIDENTE,-23.00694444,-47.13444444,CAMPINAS,SP,BRASIL,SBKP,14,16,SIM,FINALIZADA,***,NÃO,,0,1,NÃO,10/14/2022 0:00,10,2022,1/1/1900 16:40,2022-10
442,81062,81062,81062,81062,81062,INCIDENTE,-23.00694444,-47.13444444,CAMPINAS,SP,BRASIL,SBKP,13,22,SIM,FINALIZADA,***,NÃO,,0,1,NÃO,10/13/2022 0:00,10,2022,1/1/1900 22:26,2022-10
443,81061,81061,81061,81061,81061,INCIDENTE,-23.00694444,-47.13444444,CAMPINAS,SP,BRASIL,SBKP,4,22,SIM,FINALIZADA,***,NÃO,,0,1,NÃO,10/4/2022 0:00,10,2022,1/1/1900 22:26,2022-10
444,81060,81060,81060,81060,81060,INCIDENTE,-20.25805556,-40.28638889,VITÓRIA,ES,BRASIL,SBVT,13,17,SIM,FINALIZADA,***,NÃO,,0,1,NÃO,10/13/2022 0:00,10,2022,1/1/1900 17:50,2022-10
445,81059,81059,81059,81059,81059,INCIDENTE GRAVE,-20.8125851,-49.3804212,SÃO JOSÉ DO RIO PRETO,SP,BRASIL,****,17,21,SIM,FINALIZADA,***,NÃO,,0,1,NÃO,10/17/2022 0:00,10,2022,1/1/1900 21:06,2022-10
446,81058,81058,81058,81058,81058,ACIDENTE,-18.7228793,-49.2016329,CANÁPOLIS,MG,BRASIL,***,15,18,SIM,ATIVA,A-115/CENIPA/2022,NÃO,,0,1,NÃO,10/15/2022 0:00,10,2022,1/1/1900 18:00,2022-10
447,81057,81057,81057,81057,81057,INCIDENTE,-25.40333333,-49.23361111,CURITIBA,PR,BRASIL,SBBI,8,21,SIM,FINALIZADA,***,NÃO,,0,1,NÃO,10/8/2022 0:00,10,2022,1/1/1900 21:30,2022-10
448,81055,81055,81055,81055,81055,INCIDENTE,-6.220555556,-48.52277778,SÃO GERALDO DO ARAGUAIA,PA,BRASIL,***,16,16,SIM,FINALIZADA,***,NÃO,,0,1,NÃO,10/16/2022 0:00,10,2022,1/1/1900 16:20,2022-10
449,81053,81053,81053,81053,81053,INCIDENTE,-22.9520235,-46.5418586,BRAGANÇA PAULISTA,SP,BRASIL,SBBP,15,13,SIM,FINALIZADA,***,NÃO,,0,1,NÃO,10/15/2022 0:00,10,2022,1/1/1900 13:00,2022-10
450,81052,81052,81052,81052,81052,INCIDENTE,-22.9110137,-43.2093727,RIO DE JANEIRO,RJ,BRASIL,SDRJ,20,21,SIM,FINALIZADA,***,NÃO,,0,1,NÃO,8/20/2022 0:00,8,2022,1/1/1900 21:20,2022-08
451,81051,81051,81051,81051,81051,INCIDENTE,-23.00694444,-47.13444444,CAMPINAS,SP,BRASIL,SBKP,25,17,SIM,FINALIZADA,***,NÃO,,0,1,NÃO,9/25/2022 0:00,9,2022,1/1/1900 17:02,2022-09
452,81050,81050,81050,81050,81050,INCIDENTE,-22.9110137,-43.2093727,RIO DE JANEIRO,RJ,BRASIL,SBGL,25,14,SIM,FINALIZADA,***,NÃO,,0,1,NÃO,9/25/2022 0:00,9,2022,1/1/1900 14:51,2022-09
453,81049,81049,81049,81049,81049,INCIDENTE GRAVE,-19.89083333,-44.05805556,CONTAGEM,MG,BRASIL,SNHN,13,10,SIM,FINALIZADA,***,NÃO,,0,1,NÃO,10/13/2022 0:00,10,2022,1/1/1900 10:30,2022-10
454,81048,81048,81048,81048,81048,INCIDENTE,-19.62444444,-43.97194444,CONFINS,MG,BRASIL,SBCF,21,16,SIM,FINALIZADA,***,NÃO,,0,1,NÃO,9/21/2022 0:00,9,2022,1/1/1900 16:02,2022-09
455,81047,81047,81047,81047,81047,INCIDENTE,-27.5973002,-48.5496098,FLORIANÓPOLIS,SC,BRASIL,SBFL,17,22,SIM,FINALIZADA,***,NÃO,,0,1,NÃO,9/17/2022 0:00,9,2022,1/1/1900 22:26,2022-09
456,81046,81046,81046,81046,81046,INCIDENTE,-22.9520235,-46.5418586,BRAGANÇA PAULISTA,SP,BRASIL,SBBP,12,14,SIM,FINALIZADA,***,NÃO,,0,1,NÃO,10/12/2022 0:00,10,2022,1/1/1900 14:15,2022-10
457,81045,81045,81045,81045,81045,INCIDENTE GRAVE,-16.62583333,-49.34805556,GOIÂNIA,GO,BRASIL,SBNV,11,18,SIM,FINALIZADA,***,NÃO,,0,1,SIM,10/11/2022 0:00,10,2022,1/1/1900 18:10,2022-10
458,81044,81044,81044,81044,81044,INCIDENTE,-20.4640173,-54.6162947,CAMPO GRANDE,MS,BRASIL,SBCG,12,20,SIM,FINALIZADA,***,NÃO,,0,1,NÃO,10/12/2022 0:00,10,2022,1/1/1900 20:19,2022-10
459,81043,81043,81043,81043,81043,INCIDENTE,-20.29361111,-40.3125,VITÓRIA,ES,BRASIL,SIHC,11,16,SIM,FINALIZADA,***,NÃO,,0,1,NÃO,10/11/2022 0:00,10,2022,1/1/1900 16:50,2022-10
460,81042,81042,81042,81042,81042,ACIDENTE,-23.390161,-48.720868,PARANAPANEMA,SP,BRASIL,***,9,19,SIM,ATIVA,A-114/CENIPA/2022,NÃO,,0,1,NÃO,10/9/2022 0:00,10,2022,1/1/1900 19:00,2022-10
461,81041,81041,81041,81041,81041,INCIDENTE,-16.6325,-49.22111111,GOIÂNIA,GO,BRASIL,SBGO,2,16,SIM,FINALIZADA,***,NÃO,,0,1,NÃO,2/2/2022 0:00,2,2022,1/1/1900 16:45,2022-02
462,81040,81040,81040,81040,81040,INCIDENTE GRAVE,-3.2758203,-60.1867429,IRANDUBA,AM,BRASIL,****,30,11,SIM,FINALIZADA,***,NÃO,,0,1,NÃO,7/30/2022 0:00,7,2022,1/1/1900 11:00,2022-07
463,81039,81039,81039,81039,81039,INCIDENTE,-22.9110137,-43.2093727,RIO DE JANEIRO,RJ,BRASIL,SBJR,9,19,SIM,FINALIZADA,***,NÃO,,0,1,NÃO,10/9/2022 0:00,10,2022,1/1/1900 19:12,2022-10
464,81032,81032,81032,81032,81032,INCIDENTE GRAVE,-22.9086953,-42.81697117,MARICÁ,RJ,BRASIL,SBMI,8,19,SIM,FINALIZADA,***,NÃO,,0,1,NÃO,10/8/2022 0:00,10,2022,1/1/1900 19:06,2022-10
465,81031,81031,81031,81031,81031,INCIDENTE,-22.9110137,-43.2093727,RIO DE JANEIRO,RJ,BRASIL,SBGL,8,0,SIM,FINALIZADA,***,NÃO,,0,1,NÃO,9/8/2022 0:00,9,2022,1/1/1900 0:12,2022-09
466,81030,81030,81030,81030,81030,INCIDENTE,-20.25805556,-40.28638889,VITÓRIA,ES,BRASIL,SBVT,9,16,SIM,FINALIZADA,A DEFINIR,NÃO,,0,1,NÃO,10/9/2022 0:00,10,2022,1/1/1900 16:20,2022-10
467,81029,81029,81029,81029,81029,INCIDENTE,-19.9225776,-43.9451356,BELO HORIZONTE,MG,BRASIL,SBBH,6,0,SIM,FINALIZADA,***,NÃO,,0,1,NÃO,10/6/2022 0:00,10,2022,1/1/1900 0:44,2022-10
468,81028,81028,81028,81028,81028,INCIDENTE,-19.79805556,-47.96611111,UBERABA,MG,BRASIL,SBUR,7,16,SIM,FINALIZADA,***,NÃO,,0,1,NÃO,10/7/2022 0:00,10,2022,1/1/1900 16:44,2022-10
469,81027,81027,81027,81027,81027,INCIDENTE GRAVE,-23.62611111,-46.65638889,SÃO PAULO,SP,BRASIL,SBSP,9,16,SIM,ATIVA,IG-113/CENIPA/2022,NÃO,,0,1,SIM,10/9/2022 0:00,10,2022,1/1/1900 16:30,2022-10
470,81026,81026,81026,81026,81026,INCIDENTE,-22.9110137,-43.2093727,RIO DE JANEIRO,RJ,BRASIL,SBRJ,14,1,SIM,FINALIZADA,***,NÃO,,0,1,NÃO,9/14/2022 0:00,9,2022,1/1/1900 1:19,2022-09
471,81025,81025,81025,81025,81025,INCIDENTE,-3.041111111,-60.05055556,MANAUS,AM,BRASIL,SBEG,5,20,SIM,FINALIZADA,***,NÃO,,0,1,NÃO,10/5/2022 0:00,10,2022,1/1/1900 20:56,2022-10
472,81023,81023,81023,81023,81023,INCIDENTE GRAVE,-22.7392463,-47.3306032,AMERICANA,SP,BRASIL,SDAI,6,15,SIM,FINALIZADA,***,NÃO,,0,1,SIM,10/6/2022 0:00,10,2022,1/1/1900 15:30,2022-10
473,81022,81022,81022,81022,81022,INCIDENTE,-23.0077055,-51.9524309,LOBATO,PR,BRASIL,***,3,15,SIM,FINALIZADA,***,NÃO,,0,1,NÃO,10/3/2022 0:00,10,2022,1/1/1900 15:38,2022-10
474,81021,81021,81021,81021,81021,ACIDENTE,-9.540778,-57.800222,NOVA BANDEIRANTES,MT,BRASIL,***,2,19,SIM,ATIVA,A-111/CENIPA/2022,NÃO,,0,1,SIM,10/2/2022 0:00,10,2022,1/1/1900 19:00,2022-10
475,81019,81019,81019,81019,81019,ACIDENTE,-30.0324999,-51.2303767,PORTO ALEGRE,RS,BRASIL,***,3,20,SIM,ATIVA,A-112/CENIPA/2022,NÃO,,0,1,NÃO,10/3/2022 0:00,10,2022,1/1/1900 20:50,2022-10
476,81018,81018,81018,81018,81018,ACIDENTE,-27.1679891,-49.5424602,LONTRAS,SC,BRASIL,***,24,20,SIM,ATIVA,A-108/CENIPA/2022,NÃO,,0,1,NÃO,9/24/2022 0:00,9,2022,1/1/1900 20:05,2022-09
477,81017,81017,81017,81017,81017,INCIDENTE GRAVE,-16.62555556,-49.34944444,GOIÂNIA,GO,BRASIL,SBNV,30,13,SIM,FINALIZADA,***,NÃO,,0,1,SIM,9/30/2022 0:00,9,2022,1/1/1900 13:40,2022-09
478,81014,81014,81014,81014,81014,ACIDENTE,2.726388889,-62.71166667,BOA VISTA,RR,BRASIL,***,27,0,SIM,FINALIZADA,***,NÃO,,0,1,NÃO,9/27/2022 0:00,9,2022,1/1/1900 0:00,2022-09
479,81012,81012,81012,81012,81012,INCIDENTE,-19.82277778,-40.09277778,LINHARES,ES,BRASIL,***,30,12,SIM,FINALIZADA,***,NÃO,,0,1,NÃO,9/30/2022 0:00,9,2022,1/1/1900 12:20,2022-09
480,81011,81011,81011,81011,81011,INCIDENTE,-22.9110137,-43.2093727,RIO DE JANEIRO,RJ,BRASIL,SBRJ,10,11,SIM,FINALIZADA,***,NÃO,,0,1,NÃO,7/10/2022 0:00,7,2022,1/1/1900 11:00,2022-07
481,81010,81010,81010,81010,81010,INCIDENTE,-1.45056,-48.4682453,BELÉM,PA,BRASIL,SBBE,28,20,SIM,FINALIZADA,***,NÃO,,0,1,NÃO,7/28/2022 0:00,7,2022,1/1/1900 20:01,2022-07
482,81009,81009,81009,81009,81009,INCIDENTE GRAVE,-23.0622152,-54.2018319,NAVIRAÍ,MS,BRASIL,**NI,1,10,SIM,FINALIZADA,***,NÃO,,0,1,SIM,10/1/2022 0:00,10,2022,1/1/1900 10:10,2022-10
483,81008,81008,81008,81008,81008,INCIDENTE,-23.43555556,-46.47305556,GUARULHOS,SP,BRASIL,SBGR,15,3,SIM,FINALIZADA,***,NÃO,,0,1,NÃO,8/15/2022 0:00,8,2022,1/1/1900 3:15,2022-08
484,81007,81007,81007,81007,81007,INCIDENTE,-19.9512094,-44.2273507,NÃO IDENTIFICADA,PR,BRASIL,***,16,19,SIM,FINALIZADA,***,NÃO,,0,1,NÃO,9/16/2022 0:00,9,2022,1/1/1900 19:40,2022-09
485,81006,81006,81006,81006,81006,INCIDENTE,-18.88638889,-48.22527778,UBERLÂNDIA,MG,BRASIL,SBUL,28,12,SIM,FINALIZADA,***,NÃO,,0,1,NÃO,9/28/2022 0:00,9,2022,1/1/1900 12:55,2022-09
486,81004,81004,81004,81004,81004,INCIDENTE GRAVE,-5.060555556,-42.82444444,TERESINA,PI,BRASIL,SBTE,15,12,SIM,ATIVA,IG-105/CENIPA/2022,NÃO,,0,2,NÃO,9/15/2022 0:00,9,2022,1/1/1900 12:50,2022-09
487,81003,81003,81003,81003,81003,INCIDENTE GRAVE,-21.207992,-50.4390225,ARAÇATUBA,SP,BRASIL,SBAU,26,18,SIM,FINALIZADA,***,NÃO,,0,1,NÃO,9/26/2022 0:00,9,2022,1/1/1900 18:30,2022-09
488,81002,81002,81002,81002,81002,INCIDENTE,-12.40111111,-52.88444444,QUERÊNCIA,MT,BRASIL,***,22,18,SIM,FINALIZADA,***,NÃO,,0,1,NÃO,9/22/2022 0:00,9,2022,1/1/1900 18:00,2022-09
489,81001,81001,81001,81001,81001,INCIDENTE,-22.9520235,-46.5418586,BRAGANÇA PAULISTA,SP,BRASIL,SBBP,25,20,SIM,FINALIZADA,***,NÃO,,0,1,NÃO,9/25/2022 0:00,9,2022,1/1/1900 20:00,2022-09
490,81000,81000,81000,81000,81000,INCIDENTE,-5.060555556,-42.82444444,TERESINA,PI,BRASIL,SBTE,22,9,SIM,FINALIZADA,***,NÃO,,0,1,NÃO,9/22/2022 0:00,9,2022,1/1/1900 9:50,2022-09
491,80998,80998,80998,80998,80998,ACIDENTE,-19.1875,-42.04333333,ENGENHEIRO CALDAS,MG,BRASIL,***,21,17,SIM,ATIVA,A-107/CENIPA/2022,NÃO,,0,1,NÃO,9/21/2022 0:00,9,2022,1/1/1900 17:51,2022-09
492,80997,80997,80997,80997,80997,INCIDENTE,-23.43555556,-46.47305556,GUARULHOS,SP,BRASIL,SBGR,21,11,SIM,FINALIZADA,***,NÃO,,0,1,NÃO,9/21/2022 0:00,9,2022,1/1/1900 11:30,2022-09
493,80996,80996,80996,80996,80996,INCIDENTE,-28.42722222,-49.37805556,CAMPO LARGO,PR,BRASIL,***,20,18,SIM,FINALIZADA,***,NÃO,,0,1,NÃO,9/20/2022 0:00,9,2022,1/1/1900 18:17,2022-09
494,80995,80995,80995,80995,80995,INCIDENTE,-3.662777778,-53.75055556,URUARÁ,PA,BRASIL,***,20,14,SIM,FINALIZADA,***,NÃO,,0,1,NÃO,9/20/2022 0:00,9,2022,1/1/1900 14:00,2022-09
495,80994,80994,80994,80994,80994,INCIDENTE,-25.53166667,-49.17611111,CURITIBA,PR,BRASIL,SBCT,19,18,SIM,FINALIZADA,***,NÃO,,0,1,NÃO,9/19/2022 0:00,9,2022,1/1/1900 18:40,2022-09
496,80993,80993,80993,80993,80993,ACIDENTE,-23.50694444,-46.63416667,SÃO PAULO,SP,BRASIL,SBMT,20,9,SIM,ATIVA,A-106/CENIPA/2022,NÃO,,0,1,NÃO,9/20/2022 0:00,9,2022,1/1/1900 9:05,2022-09
497,80990,80990,80990,80990,80990,INCIDENTE,-22.56083333,-46.54555556,SOCORRO,SP,BRASIL,**NI,17,16,SIM,FINALIZADA,***,NÃO,,0,1,NÃO,9/17/2022 0:00,9,2022,1/1/1900 16:45,2022-09
498,80989,80989,80989,80989,80989,INCIDENTE,-19.9225776,-43.9451356,BELO HORIZONTE,MG,BRASIL,SBBH,16,18,SIM,FINALIZADA,***,NÃO,,0,1,NÃO,9/16/2022 0:00,9,2022,1/1/1900 18:48,2022-09
499,80988,80988,80988,80988,80988,INCIDENTE GRAVE,-1.0143572,-48.9621089,CACHOEIRA DO ARARI,PA,BRASIL,SIEK,15,16,SIM,FINALIZADA,***,NÃO,,0,1,NÃO,9/15/2022 0:00,9,2022,1/1/1900 16:20,2022-09
500,80987,80987,80987,80987,80987,INCIDENTE,-19.62444444,-43.97194444,CONFINS,MG,BRASIL,SBCF,15,15,SIM,FINALIZADA,***,NÃO,,0,1,NÃO,9/15/2022 0:00,9,2022,1/1/1900 15:12,2022-09
501,80985,80985,80985,80985,80985,INCIDENTE,-23.00694444,-47.13444444,CAMPINAS,SP,BRASIL,SBKP,31,16,SIM,FINALIZADA,***,NÃO,,0,1,NÃO,8/31/2022 0:00,8,2022,1/1/1900 16:09,2022-08
502,80984,80984,80984,80984,80984,INCIDENTE GRAVE,-14.8638173,-40.5761637,BARRA DO CHOÇA,BA,BRASIL,SNGW,3,12,SIM,FINALIZADA,***,NÃO,,0,1,SIM,10/3/2021 0:00,10,2021,1/1/1900 12:00,2021-10
503,80982,80982,80982,80982,80982,INCIDENTE,-23.62611111,-46.65638889,SÃO PAULO,SP,BRASIL,SBSP,13,11,SIM,FINALIZADA,***,NÃO,,0,1,NÃO,9/13/2022 0:00,9,2022,1/1/1900 11:30,2022-09
504,80981,80981,80981,80981,80981,INCIDENTE,2.7836111111111004,-60.58777778,CANTÁ,RR,BRASIL,SWPD,11,13,SIM,FINALIZADA,***,NÃO,,0,1,NÃO,9/11/2022 0:00,9,2022,1/1/1900 13:30,2022-09
505,80980,80980,80980,80980,80980,ACIDENTE,-22.57833333,-48.77444444,LENÇÓIS PAULISTA,SP,BRASIL,SDLP,11,17,SIM,ATIVA,A-104/CENIPA/2022,NÃO,,0,1,NÃO,9/11/2022 0:00,9,2022,1/1/1900 17:23,2022-09
506,80979,80979,80979,80979,80979,ACIDENTE,-16.869722,-53.031667,ALTO ARAGUAIA,MT,BRASIL,***,10,22,SIM,ATIVA,A-102/CENIPA/2022,NÃO,,0,1,NÃO,9/10/2022 0:00,9,2022,1/1/1900 22:00,2022-09
507,80978,80978,80978,80978,80978,ACIDENTE,-17.80444444,-50.48444444,SANTA HELENA DE GOIÁS,GO,BRASIL,***,9,15,SIM,ATIVA,A-100/CENIPA/2022,NÃO,,0,1,NÃO,9/9/2022 0:00,9,2022,1/1/1900 15:40,2022-09
508,80977,80977,80977,80977,80977,INCIDENTE GRAVE,-20.7866799,-51.7061247,TRÊS LAGOAS,MS,BRASIL,***,10,12,SIM,FINALIZADA,***,NÃO,,0,1,NÃO,9/10/2022 0:00,9,2022,1/1/1900 12:20,2022-09
509,80976,80976,80976,80976,80976,INCIDENTE,-22.43,-45.48083333,ITAJUBÁ,MG,BRASIL,SNHH,9,15,SIM,FINALIZADA,***,NÃO,,0,1,NÃO,9/9/2022 0:00,9,2022,1/1/1900 15:30,2022-09
510,80975,80975,80975,80975,80975,INCIDENTE,-19.9225776,-43.9451356,BELO HORIZONTE,MG,BRASIL,SBBH,4,17,SIM,FINALIZADA,***,NÃO,,0,1,SIM,9/4/2022 0:00,9,2022,1/1/1900 17:07,2022-09
511,80974,80974,80974,80974,80974,INCIDENTE,-16.443473,-39.064251,PORTO SEGURO,BA,BRASIL,SBPS,6,16,SIM,FINALIZADA,***,NÃO,,0,1,NÃO,9/6/2022 0:00,9,2022,1/1/1900 16:50,2022-09
512,80973,80973,80973,80973,80973,INCIDENTE,-22.9110137,-43.2093727,RIO DE JANEIRO,RJ,BRASIL,SBRJ,2,23,SIM,FINALIZADA,***,NÃO,,0,1,NÃO,9/2/2022 0:00,9,2022,1/1/1900 23:20,2022-09
513,80972,80972,80972,80972,80972,INCIDENTE,-15.65,-56.1175,VÁRZEA GRANDE,MT,BRASIL,SBCY,6,15,SIM,FINALIZADA,***,NÃO,,0,1,NÃO,9/6/2022 0:00,9,2022,1/1/1900 15:37,2022-09
514,80971,80971,80971,80971,80971,ACIDENTE,-1.7669992,-55.868285,ORIXIMINÁ,PA,BRASIL,***,10,13,SIM,ATIVA,A-103/CENIPA/2022,NÃO,,0,1,NÃO,9/10/2022 0:00,9,2022,1/1/1900 13:50,2022-09
515,80970,80970,80970,80970,80970,INCIDENTE,-1.3555577,-48.252235,BENEVIDES,PA,BRASIL,SNYP,9,14,SIM,FINALIZADA,***,NÃO,,0,1,NÃO,9/9/2022 0:00,9,2022,1/1/1900 14:00,2022-09
516,80969,80969,80969,80969,80969,INCIDENTE,-5.3462821,-49.1007401,MARABÁ,PA,BRASIL,SBMA,10,17,SIM,FINALIZADA,A DEFINIR,NÃO,,0,1,NÃO,9/10/2022 0:00,9,2022,1/1/1900 17:45,2022-09
517,80968,80968,80968,80968,80968,INCIDENTE,-3.380277778,-64.72527778,TEFÉ,AM,BRASIL,SBTF,2,22,SIM,FINALIZADA,***,NÃO,,0,1,NÃO,9/2/2022 0:00,9,2022,1/1/1900 22:28,2022-09
518,80967,80967,80967,80967,80967,INCIDENTE,-26.6338203,-48.6835001,BARRA VELHA,SC,BRASIL,***,26,19,SIM,FINALIZADA,***,NÃO,,0,1,NÃO,8/26/2022 0:00,8,2022,1/1/1900 19:30,2022-08
519,80966,80966,80966,80966,80966,ACIDENTE,-21.79305556,-43.38555556,JUIZ DE FORA,MG,BRASIL,SBJF,8,20,SIM,ATIVA,A-101/CENIPA/2022,NÃO,,0,1,SIM,9/8/2022 0:00,9,2022,1/1/1900 20:10,2022-09
520,80964,80964,80964,80964,80964,INCIDENTE,-10.29,-48.35777778,PALMAS,TO,BRASIL,SBPJ,11,5,SIM,FINALIZADA,***,NÃO,,0,1,NÃO,8/11/2022 0:00,8,2022,1/1/1900 5:31,2022-08
521,80963,80963,80963,80963,80963,INCIDENTE,-25.53166667,-49.17611111,CURITIBA,PR,BRASIL,SBCT,2,23,SIM,FINALIZADA,***,NÃO,,0,1,NÃO,9/2/2022 0:00,9,2022,1/1/1900 23:03,2022-09
522,80962,80962,80962,80962,80962,INCIDENTE,-23.00694444,-47.13444444,CAMPINAS,SP,BRASIL,SBKP,17,10,SIM,FINALIZADA,***,NÃO,,0,1,NÃO,8/17/2022 0:00,8,2022,1/1/1900 10:52,2022-08
523,80961,80961,80961,80961,80961,ACIDENTE,-10.4382898,-39.3304065,MONTE SANTO,BA,BRASIL,***,6,13,SIM,ATIVA,A-099/CENIPA/2022,NÃO,,0,1,NÃO,9/6/2022 0:00,9,2022,1/1/1900 13:30,2022-09
524,80960,80960,80960,80960,80960,INCIDENTE,-23.00694444,-47.13444444,CAMPINAS,SP,BRASIL,SBKP,31,16,SIM,FINALIZADA,***,NÃO,,0,1,NÃO,8/31/2022 0:00,8,2022,1/1/1900 16:09,2022-08
525,80959,80959,80959,80959,80959,INCIDENTE GRAVE,-16.63138889,-49.22166667,GOIÂNIA,GO,BRASIL,SBGO,3,20,SIM,ATIVA,IG-109/CENIPA/2022,NÃO,,0,2,NÃO,8/3/2022 0:00,8,2022,1/1/1900 20:47,2022-08
526,80958,80958,80958,80958,80958,INCIDENTE,-16.70611111,-43.81916667,MONTES CLAROS,MG,BRASIL,SBMK,5,20,SIM,FINALIZADA,***,NÃO,,0,1,NÃO,9/5/2022 0:00,9,2022,1/1/1900 20:40,2022-09
527,80956,80956,80956,80956,80956,INCIDENTE,-3.775833333,-38.53222222,FORTALEZA,CE,BRASIL,SBFZ,29,12,SIM,FINALIZADA,***,NÃO,,0,1,NÃO,8/29/2022 0:00,8,2022,1/1/1900 12:04,2022-08
528,80955,80955,80955,80955,80955,INCIDENTE,-15.65388889,-56.11611111,CUIABÁ,MT,BRASIL,SBCY,6,17,SIM,FINALIZADA,***,NÃO,,0,1,NÃO,9/6/2022 0:00,9,2022,1/1/1900 17:40,2022-09
529,80954,80954,80954,80954,80954,ACIDENTE,-26.8898813,-48.6495828,NAVEGANTES,SC,BRASIL,SBNF,2,11,SIM,ATIVA,A-098/CENIPA/2022,NÃO,,0,1,NÃO,9/2/2022 0:00,9,2022,1/1/1900 11:40,2022-09
530,80953,80953,80953,80953,80953,INCIDENTE,-23.50666667,-46.63388889,SÃO PAULO,SP,BRASIL,SBMT,27,23,SIM,FINALIZADA,***,NÃO,,0,1,NÃO,8/27/2022 0:00,8,2022,1/1/1900 23:15,2022-08
531,80952,80952,80952,80952,80952,ACIDENTE,-29.9976311,-51.3063965,ELDORADO DO SUL,RS,BRASIL,SSMK,1,18,SIM,ATIVA,A-097/CENIPA/2022,NÃO,,0,1,NÃO,9/1/2022 0:00,9,2022,1/1/1900 18:00,2022-09
532,80951,80951,80951,80951,80951,INCIDENTE GRAVE,-22.6620892,-50.420623,ASSIS,SP,BRASIL,SNAX,31,18,SIM,FINALIZADA,***,NÃO,,0,1,SIM,8/31/2022 0:00,8,2022,1/1/1900 18:45,2022-08
533,80950,80950,80950,80950,80950,INCIDENTE,-23.43555556,-46.47305556,GUARULHOS,SP,BRASIL,SBGR,28,12,SIM,FINALIZADA,***,NÃO,,0,1,NÃO,8/28/2022 0:00,8,2022,1/1/1900 12:30,2022-08
534,80949,80949,80949,80949,80949,INCIDENTE,-21.7318163,-41.3289071,SÃO JOSÉ DOS CAMPOS,SP,BRASIL,SBSJ,18,0,SIM,FINALIZADA,***,NÃO,,0,1,NÃO,8/18/2022 0:00,8,2022,1/1/1900 0:30,2022-08
535,80948,80948,80948,80948,80948,INCIDENTE,-25.53166667,-49.17611111,CURITIBA,PR,BRASIL,SBCT,28,12,SIM,FINALIZADA,***,NÃO,,0,1,NÃO,8/28/2022 0:00,8,2022,1/1/1900 12:30,2022-08
536,80947,80947,80947,80947,80947,INCIDENTE,-3.038888889,-60.04611111,MANAUS,AM,BRASIL,SBEG,20,8,SIM,FINALIZADA,***,NÃO,,0,1,NÃO,8/20/2022 0:00,8,2022,1/1/1900 8:13,2022-08
537,80945,80945,80945,80945,80945,ACIDENTE,-19.84194444,-44.6025,PARÁ DE MINAS,MG,BRASIL,SNPA,28,20,SIM,ATIVA,A-095/CENIPA/2022,NÃO,,0,1,SIM,8/28/2022 0:00,8,2022,1/1/1900 20:00,2022-08
538,80943,80943,80943,80943,80943,INCIDENTE,-25.2983566,-48.3290185,GUARAQUEÇABA,PR,BRASIL,***,18,17,SIM,FINALIZADA,***,NÃO,,0,1,NÃO,8/18/2022 0:00,8,2022,1/1/1900 17:30,2022-08
539,80942,80942,80942,80942,80942,ACIDENTE,-25.42055556,-49.51222222,CAMPO LARGO,PR,BRASIL,***,27,20,SIM,ATIVA,A-094/CENIPA/2022,NÃO,,0,1,NÃO,8/27/2022 0:00,8,2022,1/1/1900 20:30,2022-08
540,80941,80941,80941,80941,80941,INCIDENTE GRAVE,-5.530555556,-47.45833333,IMPERATRIZ,MA,BRASIL,SBIZ,26,11,SIM,FINALIZADA,***,NÃO,,0,1,SIM,8/26/2022 0:00,8,2022,1/1/1900 11:58,2022-08
541,80940,80940,80940,80940,80940,ACIDENTE,-20.4477984,-53.7609001,RIBAS DO RIO PARDO,MS,BRASIL,***,28,20,SIM,ATIVA,A-096/CENIPA/2022,NÃO,,0,1,NÃO,8/28/2022 0:00,8,2022,1/1/1900 20:30,2022-08
542,80939,80939,80939,80939,80939,INCIDENTE,-8.126388889,-34.92277778,RECIFE,PE,BRASIL,SBRF,20,16,SIM,FINALIZADA,***,NÃO,,0,1,NÃO,8/20/2022 0:00,8,2022,1/1/1900 16:35,2022-08
543,80938,80938,80938,80938,80938,INCIDENTE,-5.368055556,-49.13805556,MARABÁ,PA,BRASIL,SBMA,29,,SIM,FINALIZADA,***,NÃO,,0,1,NÃO,8/29/2022 0:00,8,2022,,2022-08
544,80936,80936,80936,80936,80936,INCIDENTE,-6.641388889,-51.95222222,SÃO FÉLIX DO XINGU,PA,BRASIL,SNFX,25,15,SIM,FINALIZADA,***,NÃO,,0,1,NÃO,8/25/2022 0:00,8,2022,1/1/1900 15:55,2022-08
545,80935,80935,80935,80935,80935,INCIDENTE,-22.43166,-47.5625,RIO CLARO,SP,BRASIL,SDRK,24,20,SIM,FINALIZADA,***,NÃO,,0,1,NÃO,8/24/2022 0:00,8,2022,1/1/1900 20:15,2022-08
546,80934,80934,80934,80934,80934,INCIDENTE GRAVE,-19.90916,-43.98916,BELO HORIZONTE,MG,BRASIL,SBPR,19,19,SIM,FINALIZADA,***,NÃO,,0,1,NÃO,8/19/2022 0:00,8,2022,1/1/1900 19:00,2022-08
547,80932,80932,80932,80932,80932,INCIDENTE,-22.81,-43.25055556,RIO DE JANEIRO,RJ,BRASIL,SBRJ,17,9,SIM,FINALIZADA,***,NÃO,,0,1,NÃO,8/17/2022 0:00,8,2022,1/1/1900 9:49,2022-08
548,80931,80931,80931,80931,80931,ACIDENTE,-22.9725,-46.68833333,BRAGANÇA PAULISTA,SP,BRASIL,**NI,22,23,SIM,ATIVA,A-093/CENIPA/2022,NÃO,,0,1,NÃO,8/22/2022 0:00,8,2022,1/1/1900 23:10,2022-08
